address,ID,categories,city,latitude,longitude,name,postal_code,review_count,stars_business
51 N 12th St,ytynqOUb3hjKeJfRj5Tshw,"Candy Stores, Shopping, Department Stores, Fast Food, Beer, Wine & Spirits, Fruits & Veggies, Chinese, Food, Ice Cream & Frozen Yogurt, Desserts, Seafood, Health Markets, Bagels, Cheese Shops, Shopping Centers, Chocolatiers & Shops, Meat Shops, Public Markets, Food Court, Wineries, Local Flavor, Ethnic Food, Restaurants, Specialty Food, Arts & Entertainment, Juice Bars & Smoothies, Seafood Markets, Farmers Market, Coffee & Tea, Bakeries, Food Stands, Dinner Theater, Sporting Goods, Grocery, Fashion",Philadelphia,39.9533414645,-75.1588545174,Reading Terminal Market,19107,5721,4.5
1237 E Passyunk Ave,PP3BBaVxZLcJU54uP_wL6Q,"Italian, American (Traditional), Sandwiches, Fast Food, Restaurants, Local Flavor, Cheesesteaks",Philadelphia,39.9332010583,-75.159265814,Pat's King of Steaks,19147,4250,3.0
1219 S 9th St,IkY2ticzHEn4QFn8hQLSWg,"Sandwiches, Cheesesteaks, Steakhouses, Restaurants",Philadelphia,39.933836785,-75.1588137524,Geno's Steaks,19147,3401,2.5
121 S 13th St,9PZxjhTIU7OgPIzuGi89Ew,"Lounges, Bars, Nightlife, Breakfast & Brunch, Mexican, Restaurants",Philadelphia,39.9497020026,-75.1617702842,El Vez,19107,3187,4.0
237 St James Pl,ctHjyadbDQAtUFfkcAFEHw,"Nightlife, Bars, Food, Ethnic Food, Middle Eastern, Vegetarian, Specialty Food, Israeli, Restaurants",Philadelphia,39.9462611465,-75.1451350779,Zahav,19106,3065,4.5
110 S 13th St,6ajnOk0GcY9xbb5Ocaw8Gw,"Mediterranean, Restaurants, Pizza, Italian",Philadelphia,39.950007,-75.1621577,Barbuzzo,19107,2893,4.5
227 S 18th St,j-qtdD55OLfSqfsWuQTDJg,"Restaurants, French, Wine Bars, Nightlife, American (New), Bars, Cafes, Breakfast & Brunch",Philadelphia,39.9491724,-75.1707273,Parc,19103,2761,4.0
400 S St,sTPueJEwcRDj7ZJmG7okYA,"Bars, Restaurants, Pizza, Cheesesteaks, Italian, Beer Bar, American (Traditional), Local Flavor, Nightlife, Sandwiches",Philadelphia,39.941498,-75.149272,Jim's South St,19147,2736,3.5
600 Wendover St,RQAF6a0akMiot5lZZnMNNw,"Sandwiches, Delis, Restaurants, Cheesesteaks",Philadelphia,40.029494,-75.2059714,Dalessandro’s Steaks & Hoagies,19128,2686,4.0
212 S 13th St,0RuvlgTnKFbX3IK0ZOOocA,"Restaurants, American (New), Diners, Breakfast & Brunch",Philadelphia,39.9481225533,-75.1624631121,Green Eggs Café,19107,2679,4.0
1020 Race St,AGlh4ZDv6jnoiYfz7At9mw,"Chinese, Restaurants, Dim Sum, Asian Fusion, Shanghainese",Philadelphia,39.955399,-75.156727,Dim Sum Garden,19107,2672,4.0
124 S 18th St,8pqdJjefYq-a9IBSJJmKwA,"British, Restaurants, Gastropubs, Bars, Nightlife",Philadelphia,39.951004,-75.170636,The Dandelion,19103,2497,4.0
1136 Arch St,IWHdx0NhDKADkGOgXgOFKQ,"Restaurants, American (Traditional), Sandwiches",Philadelphia,39.95347837,-75.1593960603,Tommy DiNic's,19147,2221,4.0
1022 Race St,ntiIq1FNqduOyyowMFGh5A,"Specialty Food, Noodles, Ethnic Food, Chinese, Comfort Food, Restaurants, Food",Philadelphia,39.9554005671,-75.1569010986,Nan Zhou Hand Drawn Noodle House,19107,2188,4.0
264 S 16th St,OdIBX09glfXNVSyd0RnIeg,"Nightlife, Pubs, Bars, Belgian, Restaurants, Gastropubs",Philadelphia,39.947701,-75.1682869,Monk's Cafe,19102,2184,4.0
217 Chestnut St,S8ZFYEgMejpChID8tzKo9A,"Spanish, Restaurants, Breakfast & Brunch, Tapas Bars, Iberian",Philadelphia,39.9485863525,-75.1449131188,Amada,19106,2109,4.0
124 S 13th St,kZ1q0K13tFYG_ZJrVvsJHA,"Thai, American (New), Restaurants, Chinese, Asian Fusion, Tapas/Small Plates, Pan Asian",Philadelphia,39.9495313759,-75.1621570259,Sampan,19107,2000,4.0
210 W Washington Sq,i_FWONQD1ZBqrNE2b-M5Ug,"American (New), Restaurants",Philadelphia,39.9473272218,-75.1535421779,Talula's Garden,19106,1927,4.5
723 Chestnut St,6_T2xzR74JqGCTPefAD8Tw,"Japanese, American (Traditional), American (New), Restaurants, Sushi Bars, Asian Fusion",Philadelphia,39.9496652299,-75.1532727008,Morimoto,19106,1914,4.5
39 E Oregon Ave,q-zV08jt6U-q05SMEuQJAQ,"Sandwiches, Fashion, Used, Vintage & Consignment, Cheesesteaks, Restaurants, Breakfast & Brunch, Shopping",Philadelphia,39.9141065086,-75.1487272304,The Original Tony Lukes,19148,1910,4.0
1804 Callowhill St,iUZEGx29miZObLd6_lt7Vg,"Breakfast & Brunch, Restaurants, Vegetarian, Cafes, American (New), Food, Diners, American (Traditional)",Philadelphia,39.9604147854,-75.1686044902,Sabrina's Café,19130,1721,4.0
228 Market St,-mIlmp5l4hKlp1tvHRdvTg,"Cheesesteaks, Comfort Food, Restaurants, Delis, Burgers, American (Traditional), Sandwiches, Local Flavor",Philadelphia,39.9499178538,-75.1447920753,Sonny's Famous Steaks,19106,1697,4.0
204 N 9th St,Sv1MEZP-mMfp8SmE0hwYEA,"Japanese, Ramen, Ethnic Food, Restaurants, Local Flavor, Food, Specialty Food",Philadelphia,39.955402,-75.154484,Terakawa Ramen,19107,1693,4.5
1801 Chestnut St,WxB8498ejPtHE7wFa89_fA,"Breakfast & Brunch, Lounges, Bars, Cocktail Bars, Nightlife, American (Traditional), American (New), Restaurants",Philadelphia,39.9519308,-75.1704529,The Continental Mid-town,19103,1682,3.5
14 E Snyder Ave,LM54ufrINJWoTN5imV8Etw,"Sandwiches, Salad, American (Traditional), Cheesesteaks, Breakfast & Brunch, Active Life, American (New), Beaches, Restaurants",Philadelphia,39.9210273851,-75.1450284438,John's Roast Pork,19148,1564,4.5
325 Chestnut St,nIAbuktMEzVjT4P9pG89rQ,"Restaurants, Asian Fusion, Chinese",Philadelphia,39.9489186,-75.1471667,Buddakan,19106,1561,4.0
118 S 20th St,EtKSTHV5Qx_Q7Aur9o4kQQ,"Bars, Nightlife, Whiskey Bars, Burgers, Restaurants, American (New)",Philadelphia,39.9514165949,-75.1737677917,Village Whiskey,19103,1553,4.0
816 N 4th St,K7KHmHzxNwzqiijSJeKe_A,"Sandwiches, Cafes, Coffee & Tea, Restaurants, Food, Breakfast & Brunch, Mediterranean, American (New)",Philadelphia,39.963948,-75.144364,Cafe La Maude,19123,1485,4.5
123 Chestnut St,qISf5ojuYbD9h71NumGUQA,"Beer, Wine & Spirits, Chinese, Restaurants, Food, Szechuan, Noodles, Soup",Philadelphia,39.9485257778,-75.143727802,Han Dynasty,19106,1474,4.0
1632 Sansom St,rgeuy1qbw6Z8B6CSVANHIA,"Donuts, Sandwiches, Soul Food, Food, Coffee & Tea, Restaurants, Chicken Wings",Philadelphia,39.950589,-75.168329,Federal Donuts,19103,1464,4.0
1221 Locust St,2CDI713ATuxHfnB5b-sBdw,"Restaurants, Vegetarian, Beer, Wine & Spirits, Vegan, Food",Philadelphia,39.9479310476,-75.1614279837,Vedge,19107,1447,4.5
1337 Chestnut St,cGX-1IUwXOjkUqZbkKYcjw,"Seafood, Steakhouses, Brazilian, Restaurants",Philadelphia,39.9509166,-75.1629711,Fogo de Chao,19107,1426,4.0
1516 Sansom St,poviu-6n3iaRE4gdQz6OYw,"Restaurants, Steakhouses, Seafood",Philadelphia,39.9502216,-75.166553,Oyster House,19102,1407,4.0
800 N 4th St,cXSyVvOr9YRN9diDkaWs0Q,"Southern, Restaurants, American (Traditional)",Philadelphia,39.96399,-75.1444822,Honey's Sit-N-Eat,19123,1396,4.0
51 N 12th St,atZ_olNKXOG4rEr6mccN8g,"Food, Donuts, Food Stands, Restaurants, Specialty Food, Bakeries, Breakfast & Brunch",Philadelphia,39.953764,-75.159218,Beiler's Bakery,19107,1368,4.5
1500 Walnut St,jkGQQ4_LgJx3hwPtCFkzbQ,"American (Traditional), Restaurants, Desserts, Food, Chocolatiers & Shops, American (New), Specialty Food, Breakfast & Brunch",Philadelphia,39.9491000076,-75.1661748827,Max Brenner - Philadelphia,19102,1358,3.5
1623 Walnut St,R17gwW6zn9ilslbdvKdgsg,"Latin American, Nightlife, Cocktail Bars, Caribbean, Cuban, Restaurants, Bars",Philadelphia,39.9500808,-75.1685265,Alma de Cuba,19103,1321,4.0
108 S 18th St,jxEMFqwDJXjCxmcm5t5jVQ,"Food, Restaurants, Cocktail Bars, Cheesesteaks, Beer, Wine & Spirits, Sports Bars, Lounges, Sandwiches, Nightlife, Bars",Philadelphia,39.9514103,-75.1706011,Cleavers,19103,1304,4.0
1234 Locust St,pXRrRf8fDv6yU3xp1E25hA,"Breakfast & Brunch, Nightlife, Bars, Restaurants, American (Traditional)",Philadelphia,39.947787,-75.162293,Bud & Marilyn's,19107,1303,4.0
3420 Sansom St,ZKPrXH_GNW_AtZ31tP3NmA,"Cocktail Bars, Gluten-Free, Bars, Diners, Vegetarian, Nightlife, Restaurants, American (New), Breakfast & Brunch, American (Traditional), Pubs",Philadelphia,39.9535582,-75.1929054,White Dog Cafe,19104,1301,4.0
1500 Walnut St,0oSSjekU-3GR8gselReWnA,"Restaurants, Steakhouses, American (Traditional)",Philadelphia,39.9493338,-75.1661758,Butcher and Singer,19102,1290,4.5
224 S 15th St,Iw8uqNPxviwcgxtruAx_LA,"American (Traditional), Restaurants, Bars, Nightlife, Burgers, Sandwiches, Soup, Pubs",Philadelphia,39.948793,-75.1662055,Good Dog Bar,19102,1279,4.0
1141 Pine St,GoYSJ-YY-YwbxdgasHuq-Q,"Latin American, Argentine, Restaurants, Breakfast & Brunch, Italian, Cuban, Caribbean",Philadelphia,39.945195,-75.161082,Mixto,19107,1246,4.0
926 Race St,qY-BUQY-SFBaSrFHowF3nA,"Korean, Restaurants, Chinese, Barbeque, Hot Pot",Philadelphia,39.9550836837,-75.1552917273,Nine Ting,19107,1213,4.0
10 S 2nd St,JHRlwxxKY0JJcU97rJ-Bug,"Nightlife, Cuban, Breakfast & Brunch, Latin American, Restaurants, Dance Clubs, Shopping, Bars, Beer, Wine & Spirits, Food",Philadelphia,39.949589,-75.14391,Cuba Libre Restaurant & Rum Bar - Philadelphia,19106,1195,3.5
428 N 13th St,TwnzM8mJn_nT2PJf1x-9kQ,"Caterers, American (New), Breakfast & Brunch, Event Planning & Services, Diners, Restaurants",Philadelphia,39.960346,-75.159706,Cafe Lift,19123,1189,4.0
910 Christian St,K3RURR9lIEE4JjOaPt99zg,"Vegetarian, Breakfast & Brunch, American (New), Coffee & Tea, American (Traditional), Caterers, Food, Cafes, Event Planning & Services, Restaurants, Diners",Philadelphia,39.938871,-75.158236,Sabrina's Café,19147,1176,4.0
130 S 17th St,30cpm1uq6xcQCmN6JTrB8w,"Sandwiches, Seafood, Restaurants",Philadelphia,39.9505067,-75.1691375,Luke's Lobster Rittenhouse,19103,1161,4.5
225 S 18th St,aUoMG97DMJG4nmwhT6z1zA,"Bars, Restaurants, Nightlife, Seafood",Philadelphia,39.94949,-75.17066,Devon Seafood Grill,19103,1159,3.5
1234 Locust St,lKU_kljhbEQKIPaM1Zbqiw,"Restaurants, Italian",Philadelphia,39.947786438,-75.1618928091,Little Nonna's,19107,1147,4.0
700 Chestnut St,d_tRshM-w6S4QxE4VVi8tQ,"American (New), Restaurants, Southern, Diners, American (Traditional)",Philadelphia,39.9493144,-75.1525254,Jones,19106,1141,3.5
120 S 13th St,Ipkx4Sa7ybn8C6LtTqTztw,"Nightlife, Sushi Bars, Cafes, Japanese, Bars, Restaurants",Philadelphia,39.9496993,-75.162185,Double Knot,19107,1140,4.5
1716 Chestnut St,-cEFKAznWmI0cledNOIQ7w,"Restaurants, Gelato, Coffee & Tea, Food, Italian, Bakeries",Philadelphia,39.9512789,-75.1695181,Gran Caffe L'Aquila,19103,1138,4.5
1428-1432 Chestnut St,4R2KR_-FybS7oegGrXjHVg,"Food, Restaurants, Seafood, Specialty Food, Steakhouses, American (Traditional)",Philadelphia,39.9509564,-75.1654591,Del Frisco's Double Eagle Steakhouse,19102,1129,4.0
146 N 10th St,iksVwRfpWymIUUFqw0tXpw,"Restaurants, Bars, Seafood, Japanese, Hot Pot, Nightlife, Chinese, Conveyor Belt Sushi, Mongolian, Asian Fusion",Philadelphia,39.9550104,-75.1561342,Chubby Cattle,19107,1128,4.5
1528 Frankford Ave,vUrTGX_7HxqeoQ_6QCVz6g,"Active Life, Beer Gardens, Grocery, Middle Eastern, Specialty Food, American (New), Parks, Cafes, Food, Nightlife, Restaurants, Coffee & Tea, Lebanese",Philadelphia,39.9736865005,-75.1339557767,Suraya,19125,1121,4.5
117 N 10th St,eaDZlSuVS0EY67Ke6pRP6Q,"Malaysian, Asian Fusion, Cambodian, Chinese, Restaurants, Thai",Philadelphia,39.954044,-75.15598,Penang,19107,1112,3.5
205 South 13th St,-0TffRSXXIlBYVbb5AwfTg,"Cocktail Bars, Food Delivery Services, Nightlife, Breakfast & Brunch, Food, Bars, Event Planning & Services, Caterers, Restaurants, Indian",Philadelphia,39.9485078263,-75.1619688173,IndeBlue Modern Indian Food & Spirits,19107,1097,4.5
15 S 3rd St,fOhnSqmO4XY5vSI8whVKSA,"Breakfast & Brunch, American (New), Mexican, French, Restaurants, Italian",Philadelphia,39.9496993,-75.1457815,Farmicia,19146,1094,4.0
719 Walnut St,h7TO_IsmLCYmKKDVOOIeFw,"Restaurants, Sushi Bars, Japanese",Philadelphia,39.9481318,-75.153395,Fat Salmon,19106,1089,4.5
127 S 18th St,Dv6RfXLYe1atjgz3Xf4GGw,"Burgers, Vegetarian, Restaurants, Vegan",Philadelphia,39.950774,-75.170397,HipCityVeg,19103,1082,4.0
3945 Chestnut St,kVTHnhgYUw-Pmr7wgDB4_g,"Mexican, Restaurants, Nightlife, Cocktail Bars, Bars",Philadelphia,39.9558813,-75.2020031,Distrito,19104,1077,3.5
131 S 13th St,of-GVqY0G_UDHXT9Xg_ADQ,"Bars, Nightlife, Kosher, Burgers, Tapas/Small Plates, American (Traditional), Vegan, Seafood, Cocktail Bars, Restaurants, Vegetarian",Philadelphia,39.9495123,-75.1617661,Charlie Was a Sinner,19107,1039,4.0
1040 N 2nd St,JUlsvVAvZvGHWFfkKm0nlg,"Mexican, Tex-Mex, Restaurants, Barbeque",Philadelphia,39.9673004,-75.1403984,El Camino Real,19123,1014,3.5
2031 Walnut St,mtvT7uRey3F395STFRM1Tg,"Food, Restaurants, Beer, Wine & Spirits, Diners, American (New)",Philadelphia,39.950759,-75.1748461,Vernick Food & Drink,19103,997,4.5
1210 Frankford Ave,ELY0HI8GDEx0jkmREVna0A,"German, Restaurants, Nightlife, Food, Bars, Pretzels, Beer Gardens, Pubs",Philadelphia,39.969439,-75.134647,Frankford Hall,19125,981,4.0
1310 Drury St,cOXc8c85Ms6dMEAJazLXHQ,"Bars, Nightlife, Pubs, American (Traditional), Event Planning & Services, Karaoke, Restaurants, Venues & Event Spaces, Irish Pub, Sports Bars, Irish",Philadelphia,39.950168,-75.162607,McGillin's Olde Ale House,19107,979,4.0
2013 Chestnut St,SCjUeZfjafJ88fWWQjRh2w,"Restaurants, Lounges, Bars, Mexican, Nightlife, Tex-Mex, Breakfast & Brunch",Philadelphia,39.9522598,-75.1740323,El Rey,19103,968,3.5
1328 Pine St,sVZb87xjhbCWHQ2UXOGLrA,"Pizza, Italian, Restaurants, Gluten-Free",Philadelphia,39.9453393812,-75.1644544588,Giorgio On Pine,19107,954,4.0
435 Spring Garden St,dG-gZOWzn8iO1Rvv_fbXxA,"Dance Clubs, Bars, Diners, Breakfast & Brunch, Lounges, Restaurants, Nightlife, American (New)",Philadelphia,39.9613271,-75.1460328,Silk City Diner & Lounge,19123,940,4.0
262 S 10th St,TunmRrfZb7bt53T6HJi4UQ,"Sushi Bars, Japanese, Restaurants, Asian Fusion, Tapas/Small Plates",Philadelphia,39.9463986271,-75.157800703,Bleu Sushi,19107,938,4.5
238 N 9th St,_V6hl1oGkTV2KbGeax_HPA,"Restaurants, Noodles, Dim Sum, Hong Kong Style Cafe, Cantonese, Food, Barbeque, Juice Bars & Smoothies, Chinese",Philadelphia,39.9563986,-75.1542873,Sang Kee Peking Duck House,19107,926,4.0
1525 Sansom St,CYSPKiVdoPX3erovujnE9Q,"Active Life, Nightlife, Bars, American (Traditional), Bowling, Restaurants, American (New), Gastropubs",Philadelphia,39.9504170438,-75.1664282754,Harp & Crown,19102,912,4.0
931 N 2nd St,73UjNbSoQjQAOS45rcihFg,"Nightlife, Restaurants, Breakfast & Brunch, Bars, Mexican",Philadelphia,39.9648195,-75.1402322,Cantina Dos Segundos,19123,904,4.0
1111 Locust St,NFzfuIFghE-HnrodHpaT6A,"Cheese Shops, Food, Specialty Food, Sandwiches, Cafes, Restaurants, Pizza, American (New), Beer, Wine & Spirits, Butcher, Modern European, Italian, Bars, Nightlife",Philadelphia,39.9477453,-75.159542,Garces Trading Company,19107,896,4.0
2035 Sansom St,FqOCC8Y9xryaX7sIBJcrxA,"Japanese, Sushi Bars, Restaurants",Philadelphia,39.9515773,-75.174834,Vic Sushi Bar,19103,884,4.0
123 S 18th St,eJaeTZlIdM3HWCq__Ve4Wg,"French, Spanish, Tapas Bars, Cafes, Restaurants, Wine Bars, Modern European, Bars, Nightlife, Italian, Comedy Clubs, Greek, American (New)",Philadelphia,39.9509483,-75.1704197,Tria Cafe Rittenhouse,19103,880,4.5
640 N Broad St,05ev984NYfimRN0UiFrxaA,"Nightlife, Restaurants, Italian, Bars, Wine Bars",Philadelphia,39.965015,-75.161076,Osteria,19130,877,4.0
114 S 20th St,gnpyyeWQ53WlDMJEq-YA_w,"Basque, Tapas Bars, Iberian, Bars, Wine Bars, Restaurants, Lounges, Nightlife, Spanish",Philadelphia,39.9515011,-75.1738449,Tinto,19103,877,4.0
1229 Spruce St,sy7ADvpBA7SfHwbY-Y_5gw,"American (New), Nightlife, Greek, Cocktail Bars, Bars, Mediterranean, Restaurants, Pizza, Tapas Bars, Latin American, Tapas/Small Plates, Lounges",Philadelphia,39.9467941,-75.1622221,Valanni,19107,875,4.0
22 S 3rd St,wB1Tin0OW1JRpaKM-E3ZYA,"Pubs, Food, Breakfast & Brunch, Dance Clubs, Bars, American (New), American (Traditional), Beer, Wine & Spirits, Restaurants, Nightlife",Philadelphia,39.9495443,-75.1459872,National Mechanics,19106,875,4.0
401 S Columbus Blvd,AmI3LIUNwsi4023hOVGu3w,"American (Traditional), Seafood, Nightlife, Event Planning & Services, Cocktail Bars, Wine Bars, Restaurants, Venues & Event Spaces, American (New), Bars",Philadelphia,39.942335482,-75.1413081,Moshulu,19106,874,3.5
1651 E Passyunk Ave,4J06--ty2Ydj1---IsArLw,"Restaurants, Mexican, Breakfast & Brunch, Bars, Fast Food, Nightlife",Philadelphia,39.9288976,-75.1644726699,Cantina Los Caballitos,19148,874,3.5
126 S 16th St,kbXpjBSweedxQ1WrlJ5i7Q,"Taiwanese, Restaurants, Noodles, Szechuan, Chinese",Philadelphia,39.950247,-75.167598,Dan Dan,19102,860,4.0
719 N 2nd St,vXb4OWsjPoiBtmarfexj-g,"Restaurants, American (New), Diners, Breakfast & Brunch",Philadelphia,39.9623633,-75.1407424,Green Eggs Café,19123,852,3.5
56 S 2nd St,OHzX-ZD9qyoeoxR8Z0dlIA,"Restaurants, American (Traditional), Bars, Pubs, Nightlife, Gastropubs",Philadelphia,39.9486423,-75.1441173,Khyber Pass Pub,19106,845,4.0
112 S 13th St,_LOJW0XkOpj4O348GVRDeQ,"Italian, Wine Bars, Bars, Mediterranean, Pizza, Restaurants, Nightlife",Philadelphia,39.9499542,-75.1621423,Zavino,19107,843,4.0
138 S 2nd St,HPqTJ_yF2ZJw87yHWnSzSg,"Pubs, Restaurants, Event Planning & Services, Desserts, Food, Comfort Food, American (Traditional), Nightlife, Bars, Venues & Event Spaces, Italian, American (New)",Philadelphia,39.9471427567,-75.1445095605,City Tavern Restaurant,19106,841,4.0
227 N 34th St,6ewV-e7-39oqYUq3yZuIyw,"Breakfast & Brunch, Restaurants, Vegetarian, American (New), American (Traditional), Comfort Food, Cafes",Philadelphia,39.9598792,-75.1906815,Sabrina's Café,19104,833,4.0
1907 Chestnut St,RnhLCG4N9MPy6ZRzq787Cg,"Local Flavor, Nightlife, Bars, American (New), Restaurants, Breakfast & Brunch, Sports Bars, Pubs",Philadelphia,39.95214,-75.1722162,Devil's Alley Bar & Grille,19103,825,3.5
1228 Chestnut St,-1B9pP_CrRBJYPICE5WbRA,"Asian Fusion, Restaurants, American (New), Thai, Szechuan, Chinese",Philadelphia,39.950352,-75.1615829,Spice 28,19107,822,4.0
255 S 10th St,FHNIvNgh3fS7VZQq2Y3dsA,"Asian Fusion, Tapas/Small Plates, American (New), Restaurants, Vietnamese, Korean, Noodles, Ramen, Japanese",Philadelphia,39.9467949,-75.1577025,Cheu Noodle Bar,19107,818,4.0
1306 Dickinson St,rYqmaOIULRouz_1db07OdQ,"Diners, Restaurants, Breakfast & Brunch, American (New)",Philadelphia,39.931348,-75.166497,Green Eggs Cafe,19147,813,4.0
207 S Sydenham St,oqbhVgliVJH-iRa3AnD-3A,"Cafes, Food, Coffee & Tea, Bakeries, Coffee Roasteries, Restaurants",Philadelphia,39.9493333403,-75.1667326512,Elixr Coffee Roasters,19102,810,4.5
101 S 9th St,trwHwsXOVV-ZmF-MtP98BA,"Cafes, Pizza, American (New), Breakfast & Brunch, Sandwiches, Restaurants",Philadelphia,39.949579,-75.1553831,High Street Philadelphia,19107,807,4.0
"The Piazza At Schmidts, 1050 N Hancock St",J8S7cPPlTgsQnXKVfTyN8g,"American (Traditional), Food, Salad, Burgers, Bars, Nightlife, Restaurants",Philadelphia,39.9665050097,-75.1391493002,PYT,19123,806,3.0
468 W Cheltenham Ave,qsm7SkX60JsajT7Yz248FA,"Coffee & Tea, Food, Japanese, Restaurants, Chicken Wings, Korean, Asian Fusion",Philadelphia,40.0550205,-75.1260334,Café Soho,19126,800,4.0
3636 Sansom St,3gVSrS4kffGGZT8oXHsIcw,"Restaurants, Lounges, Asian Fusion, Nightlife, Sushi Bars, Bars",Philadelphia,39.9539707735,-75.1960369886,Pod,19104,797,3.5
116 S 11th St,V0SHmvYtXqdv8-AsqshV6w,"Nightlife, Bars, American (New), Barbeque, Restaurants",Philadelphia,39.9495395623,-75.158919096,Smokin Bettys,19107,796,3.5
1136 Arch St,44Xh-IjWDSn7XTw1hzO50g,"Sandwiches, Restaurants, Juice Bars & Smoothies, Food, Breakfast & Brunch",Philadelphia,39.9534618209,-75.1593213069,Dutch Eating Place,19107,796,4.5
900 South St,qsAZNQ-6P4I9r7onkBZJ_g,"Barbeque, Restaurants",Philadelphia,39.9425847,-75.1570964,Percy Street Barbecue,19147,794,4.0
237 S 18th St,wbDRmtxaKRpBOjutvV6TEA,"Steakhouses, Restaurants",Philadelphia,39.9487096,-75.1708743,Barclay Prime,19103,789,4.5
"University of Pennsylvania, 3925 Walnut St",csS_UrBujOvjASbX3gLW7w,"Sandwiches, American (Traditional), Burgers, Restaurants, Salad",Philadelphia,39.954086811,-75.2009592271,Bobby's Burger Palace,19104,788,3.5
8500 Essington Ave,6zEWIsb6Lhr3BeoC3gm1lw,"Sandwiches, American (Traditional), Seafood, Restaurants",Philadelphia,39.8774228729,-75.2405207186,Chickie's and Pete's,19153,787,2.5
"50 S 16th St, Fl 37",9gObo5ltOMo6UgsaXaHPWA,"American (New), Lounges, Nightlife, Cocktail Bars, Bars, Restaurants",Philadelphia,39.9516172612,-75.167190457,R2L,19102,787,3.5
901 N 2nd St,WMkiheTT-8kRslImVLWMVw,"Local Flavor, American (Traditional), Restaurants, Burgers, Desserts, Breakfast & Brunch, Food, American (New), Gastropubs, Beer, Wine & Spirits, Nightlife, Bars, Pubs",Philadelphia,39.96414,-75.1405144,Standard Tap,19123,785,4.0
3711 Market St,MMRRS6YhVRx_iN5-JhMRYg,"Restaurants, Chinese, Szechuan",Philadelphia,39.9567105161,-75.1971027811,Han Dynasty,19104,783,4.0
2000 Sansom St,BxfvdHqETU8jWYUjx5OL2A,"Food, Hot Dogs, Burgers, Ice Cream & Frozen Yogurt, Fast Food, American (Traditional), Restaurants",Philadelphia,39.9512256328,-75.1737892628,Shake Shack,19103,777,3.5
1137 Spruce St,Q-prSTdggNlxAEFV88BZOw,"Beer, Wine & Spirits, Wine Bars, Modern European, American (New), Cheese Shops, Specialty Food, Food, Restaurants, Bars, Nightlife",Philadelphia,39.9466238,-75.1609139,Tria Cafe Wash West,19107,770,4.5
2600 Benjamin Franklin Pkwy,Qw7tz-UkPrpXaVidWuab4Q,"Art Museums, Jazz & Blues, Arts & Crafts, American (New), Shopping, Museums, Nightlife, Art Galleries, Restaurants, Arts & Entertainment",Philadelphia,39.965573,-75.180969,Philadelphia Museum of Art,19130,767,4.5
718 South St,8j3blTZChklt3j89jxx0fw,"Nightlife, Bars, Restaurants, German",Philadelphia,39.9423058586,-75.1546984195,Brauhaus Schmitz,19147,764,4.0
412 S 13th St,fivoAD6x6jXJRiEZwhpcEQ,"Wine Bars, Tapas/Small Plates, Nightlife, Restaurants, Italian, Cocktail Bars, Pizza, Bars",Philadelphia,39.9448680216,-75.1632501141,Amis Trattoria,19147,762,4.0
1405 Locust St,AaTpjyw-EiODgi3tR4Xr-g,"Restaurants, Greek, Mediterranean, Seafood",Philadelphia,39.9483920508,-75.1653502258,Estia,19102,761,4.0
500 Spring Garden St,IvAa7PvfOYl0xRML5W3ebg,"American (Traditional), Nightlife, Food, Bars, Restaurants, Beer, Wine & Spirits, American (New), Pubs, Local Flavor, Breweries, Event Planning & Services, Venues & Event Spaces",Philadelphia,39.9609706195,-75.146908,Yards Brewing Company,19123,755,4.0
1602 Locust St,kxKai8GE5oDMPevV7oxvbA,"Restaurants, Bars, Nightlife, Mexican",Philadelphia,39.9485127,-75.1680322,Tequilas Restaurant,19103,753,4.0
1714 Walnut St,fN12ywQpLXQ93bpwe1N_Ww,"Breakfast & Brunch, Italian, Restaurants, Pizza",Philadelphia,39.9497512,-75.1699969,Pietro's Coal Oven Pizzeria,19103,751,3.5
211 N 11th St,eoN0GAIRV0WmwUm7FmzKgQ,"Japanese, Sushi Bars, Karaoke, Nightlife, Restaurants",Philadelphia,39.9559497,-75.1571603,Yakitori Boy,19107,748,3.5
"3925 Walnut St, Fl 2, Radian Balcony",LwX2vbzttWYAdoBoVtfvRg,"Pubs, Gastropubs, Venues & Event Spaces, Bars, Nightlife, Event Planning & Services, American (New), Restaurants",Philadelphia,39.9543092612,-75.2013524735,City Tap House,19104,742,3.5
735 S 10th St,-DGsnMlRrR_tv8avrpQLQw,"Breakfast & Brunch, Restaurants, Diners",Philadelphia,39.9408607,-75.1589045,Sam's Morning Glory Diner,19147,741,4.0
126 S 19th St,E_h2yNoagLK-3ODYwMPErw,"American (New), Breakfast & Brunch, Vegetarian, Vegan, Bars, Wine Bars, Restaurants, Nightlife",Philadelphia,39.9508935069,-75.1722220268,V Street,19103,739,4.5
1100 Washington Ave,8kUh6TROemLfbVR_ewVVLg,"Restaurants, Seafood, Vietnamese",Philadelphia,39.9364886,-75.1622139,Nam Phuong,19147,738,4.0
133 S 18th St,617w8MQE3z1szmLvs0WfCw,"Restaurants, Vegetarian, Latin American, Vegan",Philadelphia,39.9506592976,-75.1705476767,Bar Bombón,19103,734,4.0
4116 Ridge Ave,BWITd9JUXP3gSi1z3Y-z8g,"Italian, Food, Nightlife, Pizza, Bars, Cocktail Bars, Beer, Wine & Spirits, Restaurants",Philadelphia,40.0078746,-75.1924072,In Riva,19129,729,4.0
1625 Sansom St,JVDHxMnKjif8XdXVFWiClg,"Beer, Wine & Spirits, Middle Eastern, Restaurants, Food",Philadelphia,39.9506511,-75.1683346,Dizengoff,19103,725,4.5
337 S St,YPLfRswyryjjW3VJa-SdaA,"Restaurants, Seafood, Cheesesteaks, Burgers, Pizza, Sandwiches",Philadelphia,39.9416787531,-75.1487875936,Ishkabibble's,19147,722,4.0
276 S 20th St,I2ISRV7IybkMc3HEYKUE9g,"Restaurants, Greek, Mediterranean, Seafood, American (New)",Philadelphia,39.948271,-75.174425,Audrey Claire,19103,722,4.0
7500 State Rd,_UOg5_pk9IhKee91eWrT4A,"Smokehouse, Barbeque, Food, Restaurants, Buffets",Philadelphia,40.029103,-75.0272619,Sweet Lucy's Smokehouse,19136,721,4.5
51 N 12th St,Zqd_DHAtrdzRJ8u3zwrvEA,"Restaurants, Delis, Sandwiches, Salad",Philadelphia,39.953284,-75.159403,Hershel's East Side Deli,19107,718,4.5
1253 N Front St,JrG4NINLspXPNhSXg7Q07Q,"Coffee & Tea, Restaurants, Cafes, American (New), Cocktail Bars, Breakfast & Brunch, Vegan, Bars, Nightlife, Food, Juice Bars & Smoothies, Beer Gardens",Philadelphia,39.9702007,-75.1356343,Front Street Cafe,19122,716,4.0
507 S 6th St,ME7nOO4hHoCwkbssGqsyPA,"Restaurants, Pizza, Vegan",Philadelphia,39.9427139128,-75.1521387816,Blackbird Pizzeria,19147,716,4.0
738 S 11th St,IGxrAQcqw8Mr1x9WLXQsNA,"Breakfast & Brunch, American (Traditional), Food, American (New), Sandwiches, Restaurants, Beer, Wine & Spirits",Philadelphia,39.9410364,-75.1608686,Hawthornes Biercafé,19147,716,4.0
221 N Columbus Blvd,gOrJeoLDOiW7muWuoE-sMg,"Restaurants, Nightlife, Arts & Entertainment, Seafood, Music Venues, American (New), Paint & Sip, Dance Clubs, Sandwiches, Bars",Philadelphia,39.9549030181,-75.1389125268,Morgan's Pier,19123,710,3.0
1216 Spruce St,bjPUhanWoinHi2kywvVzBA,"Italian, Mediterranean, Restaurants",Philadelphia,39.9464996,-75.1617652,Mercato BYOB,19107,709,4.0
907 Race St,ueAkLzWFFTzQkq3jzyBlnA,"Thai, Vietnamese, Restaurants",Philadelphia,39.9553922,-75.1546977,Pho Xe Lua Viet Thai Restaurant,19107,708,4.0
1009 Arch St,vUkiYPpbkMXA99WneLSGkQ,"Singaporean, Malaysian, Restaurants, Sushi Bars, Thai, Asian Fusion",Philadelphia,39.9537784576,-75.157045316,Banana Leaf,19107,706,3.5
4500 Walnut St,6_LnAQQ0-mml8YgpfRjGuA,"Halal, Middle Eastern, Restaurants, Food, Indian, Cheesesteaks, Desserts",Philadelphia,39.9549627,-75.2118511,Saad's Halal Restaurant,19139,702,4.5
1901 John F Kennedy Blvd,gjFUrbSMo1rA1jgG5IhA2A,"Brazilian, Food, Desserts, Restaurants, Barbeque, Chinese, American (New), Dim Sum, Steakhouses",Philadelphia,39.9547768017,-75.1726724432,Chima Steakhouse,19103,697,3.5
4120 Main St,ZGH8MzJa7Q7iIpmtzBAJAQ,"Sushi Bars, American (New), Bars, Pizza, American (Traditional), Restaurants, Nightlife, Breweries, Food",Philadelphia,40.022471,-75.2188,Manayunk Brewery,19127,692,3.5
530 South St,REiAM73RkOxFqCVlEFiRWA,"Lounges, Nightlife, Bars, Restaurants, Vegan, American (New), Dive Bars, Sandwiches, Cocktail Bars, Burgers, Local Flavor",Philadelphia,39.9416802,-75.1519159,Tattooed Mom,19147,692,4.0
2101 South St,bN_9QgxdOIk4oK-6fBDJtQ,"Breakfast & Brunch, American (Traditional), Restaurants, Comfort Food, Diners",Philadelphia,39.9451794837,-75.1771896936,Honey's Sit N Eat,19146,691,4.0
145 N 11th St,vVfy055EfLMdd0yJYHxiMQ,"Food, Coffee & Tea, Cafes, Bakeries, Desserts, Restaurants",Philadelphia,39.9552167,-75.1574268,A La Mousse,19107,691,4.5
"212 Walnut St, Fl 2",sb8-TzsXOV7IsErbpHZo3g,"Breakfast & Brunch, Lounges, Seafood, Bars, Nightlife, Restaurants, Italian, Tapas Bars",Philadelphia,39.9466579,-75.144724,Positano Coast by Aldo Lamberti,19106,689,3.5
214 Market St,wHkYLlZyPXllrQRlvidUlg,"Food, Local Flavor, Sandwiches, Restaurants, Fast Food, Delis, Cheesesteaks",Philadelphia,39.9497014,-75.1442745,Campo's Philly Cheesesteaks,19106,686,3.5
2034 Chestnut St,jS3affmkXWrBnidXA-DIfQ,"Steakhouses, Comfort Food, Butcher, Bars, Specialty Food, Food, Nightlife, Whiskey Bars, Restaurants, Gastropubs",Philadelphia,39.9520301,-75.1748960093,Butcher Bar,19103,682,4.0
2321 Fairmount Ave,DZglT5FP5VNDQJU3PuRIHw,"Cocktail Bars, Restaurants, Mexican, Bars, Nightlife",Philadelphia,39.967534,-75.1760734,La Calaca Feliz,19130,681,4.0
2201 Christian St,iWy6Wft0MMO9Ud2wM93frg,"American (New), Nightlife, Chicken Wings, Gastropubs, Cocktail Bars, Burgers, Bars, Pubs, Restaurants",Philadelphia,39.9418939,-75.1794584,The Sidecar Bar & Grille,19146,680,4.0
3653 Germantown Ave,4wq9bzoCe3Mh0cPbYH1eDg,"Steakhouses, Bars, Nightlife, Sandwiches, Restaurants, Cheesesteaks",Philadelphia,40.009045,-75.150471,Max's Steaks,19140,679,4.0
136 Chestnut St,SGi8AJhR8iS-LsQwcMOAVA,"Food, Belgian, Fish & Chips, Nightlife, Beer, Wine & Spirits, Food Delivery Services, Bars, Restaurants",Philadelphia,39.9483817004,-75.1438970408,Eulogy Belgian Tavern,19106,678,4.0
801 N 3rd St,W06QBC9vkxA5CVBNVrOMRA,"Bars, Food, Beer, Wine & Spirits, Nightlife, Pubs, Restaurants, Burgers, American (New)",Philadelphia,39.96350593,-75.1427820977,North Third,19123,677,4.0
1201 Filbert St,2WGnykxiM-Mp-qIm2u7iAw,"Restaurants, Pizza, Bars, Nightlife, Italian, Venues & Event Spaces, Event Planning & Services",Philadelphia,39.9531992,-75.1602278,Maggiano's Little Italy,19107,676,3.5
2331 E Cumberland St,u7cZUEGK6iJP2gvI22xY2A,"Bars, Restaurants, American (New), Beer Bar, Pubs, Nightlife",Philadelphia,39.9803676,-75.1230344,Memphis Taproom,19125,675,4.0
937 E Passyunk Ave,jHVotJhyPKOLuO7MVnmbtQ,"Vegan, Vegetarian, Sandwiches, American (New), Wine Bars, Cocktail Bars, Nightlife, Bars, Restaurants",Philadelphia,39.9370015,-75.1545039,Royal Tavern,19147,669,4.0
106 S 13th St,85e8Uyn8tIyEZCqBP80rqA,"Restaurants, Mexican",Philadelphia,39.9500808716,-75.162,Lolita,19107,668,4.0
517 S Leithgow St,F8yozE3NWnImNApHO347gQ,"Restaurants, Mediterranean, Moroccan",Philadelphia,39.9420436,-75.1495102,Marrakesh,19147,659,4.5
305 S St,FD7gMovIYQmhdn23Iq91zQ,"Pizza, Italian, Restaurants",Philadelphia,39.941596,-75.1478101,Lorenzo & Sons Pizza,19147,657,4.0
760 S 9th St,j99PtxlKTW_u5alE4jiqHQ,"Restaurants, Italian",Philadelphia,39.9400584,-75.1578655,Ralphs Italian Restaurant,19147,653,3.5
1429 Marlborough St,el-WV1mOpFmrQOowLnh4aw,"Restaurants, Hot Dogs, Sandwiches, Salad",Philadelphia,39.973362,-75.133615,Paesano's Philly Style,19125,652,4.5
1939 Callowhill St,u7_3L1NBWgxhBM_B-cmmnA,"Italian, Pizza, Restaurants, Salad",Philadelphia,39.960888,-75.171213,Pizzeria Vetri,19130,651,4.0
2401 E Norris St,GAuweBrcC_wK3a0UhZjwfA,"Restaurants, Tacos, Bars, Nightlife, Mexican",Philadelphia,39.977142,-75.127202,Loco Pez,19125,650,4.0
4420 Walnut St,irXywqvfXj9maLLOBQMYvg,"Bakeries, Food, Mediterranean, Breakfast & Brunch, Middle Eastern, Restaurants, Lebanese, Coffee & Tea, Halal",Philadelphia,39.9549844,-75.2115232,Manakeesh Cafe Bakery & Grill,19104,646,4.0
2101 Sansom St,Uky0DD3LU4C7eyNDhpmOXg,"Restaurants, Event Planning & Services, Food Delivery Services, Sandwiches, Desserts, Caterers, Breakfast & Brunch, Food, Bakeries, American (Traditional), American (New)",Philadelphia,39.9516785914,-75.1757079913,Day By Day,19103,642,4.0
1623 Sansom St,vhDWGF-8BfsxvS7Zo5Wv2w,"Beer, Wine & Spirits, Nightlife, Food, Beer Bar, Bars, Restaurants, Modern European",Philadelphia,39.9507508655,-75.1682812761,Abe Fisher,19103,640,4.5
306 Market St,y1Z9tymuBGVDZnYZoLk-2Q,"Burgers, American (New), Restaurants, Breakfast & Brunch",Philadelphia,39.9500007,-75.146124,Fork,19106,640,4.0
138 Market St,R3FDYMQBrMpkUquwE-eniQ,"Restaurants, American (New), Lounges, Nightlife, Bars, Breakfast & Brunch",Philadelphia,39.9496927497,-75.1436231285,The Continental Restaurant and Martini Bar,19106,638,4.0
1338-46 Chestnut St,9mA9qYqiv4c0T9ASid3PIQ,"Seafood, Restaurants, Wine Bars, American (Traditional), Italian, Steakhouses, Bars, Nightlife",Philadelphia,39.9506134672,-75.1636080327,The Capital Grille,19107,634,4.0
1119 Walnut St,bLJP0fVgscuUQy0hE_CRXA,"Restaurants, Thai, Bars, Nightlife",Philadelphia,39.9490512,-75.159888,Xiandu Thai,19107,631,4.0
1208 Frankford Ave,3ldp8B52AOzNSFnPMAY0ww,"Barbeque, Restaurants",Philadelphia,39.9692358,-75.134788,Fette Sau,19125,631,4.0
1116 Walnut St,mf0OyZ6DX2iKUFIV9TqFRQ,"Bars, Burgers, Chicken Wings, Restaurants, Pubs, Nightlife, American (Traditional), Irish",Philadelphia,39.9485658,-75.1598508,Moriarty's Restaurant and Irish Pub,19107,629,3.5
1109 Walnut St,2er_V-oAd7IbQ5YTY56r7A,"Restaurants, Burgers, American (New), Food, American (Traditional), Nightlife, Bars, Cocktail Bars, Salad",Philadelphia,39.9489334,-75.1595088,Bareburger - Midtown Village,19107,622,4.0
700 S 4th St,03jQGGJ2ch0uHTtW-UUUqg,"Bakeries, Breakfast & Brunch, Delis, Restaurants, Food, Sandwiches, Desserts",Philadelphia,39.9404915,-75.1496827,Famous 4th Street Delicatessen,19147,620,4.0
623 S 6th St,4_-IcMpkF_sBRHomWZHNzA,"Restaurants, French, Breakfast & Brunch",Philadelphia,39.9414622968,-75.1523852348,Bistrot La Minette,19147,619,4.5
501 N 13th St,4_W5pstoN1166TGjjPOrMg,"American (Traditional), Bars, Nightlife, Restaurants, Beer Bar, Gastropubs, Breakfast & Brunch, Tapas/Small Plates",Philadelphia,39.9613018,-75.1593118,Prohibition Taproom,19123,618,4.0
130 S 18th St,dChRGpit9fM_kZK5pafNyA,"Restaurants, American (New), Breakfast & Brunch, Burgers",Philadelphia,39.9506555,-75.1708991,The Love,19103,618,4.0
433 Chestnut St,DsKzHnkLKnxZTVsFpts4oA,"Breakfast & Brunch, American (New), Restaurants",Philadelphia,39.9492805,-75.1489288,Red Owl Tavern,19106,618,3.5
"1516 Sansom St, Fl 2",G9LZoNlCfRH941q87_JLIg,"Tex-Mex, Restaurants, Food, Nightlife, Beer, Wine & Spirits, Pubs, Bars, Mexican",Philadelphia,39.9502217062,-75.1665529981,Mission Taqueria,19102,617,4.0
1946 Lombard St,7lwe7n-Yc-V9E_HfLAeylg,"Restaurants, Pubs, Food, Bars, American (New), Nightlife",Philadelphia,39.9456566,-75.1747733,Pub & Kitchen,19146,615,3.5
130 S 19th St,htO_nlxkEsYHzDrtbiUxew,"Restaurants, Food, Coffee & Tea",Philadelphia,39.9506099,-75.172368,La Colombe Coffee,19103,614,4.0
111 S 17th St,dQZlvOEVNke30MY5iTiy1g,"Nightlife, Bars, Restaurants, Italian, Lounges, Steakhouses, Breakfast & Brunch",Philadelphia,39.951001,-75.16874,Davios,19103,614,4.0
1020 Cherry St,_k1CIuPkY-uLFm8lABFG8Q,"Nightlife, Restaurants, Bars, Asian Fusion, Chicken Wings, Korean",Philadelphia,39.954502,-75.15699,Bonchon Philadelphia,19107,613,3.5
112 N 9th St,gEX_kEhYgvLKGJtlY45BmQ,"Burmese, Restaurants",Philadelphia,39.953909,-75.1547889,Rangoon Burmese Restaurant,19107,612,4.0
1312 South St,ysvzP0VvMTrGmUClKJ3img,"Soul Food, Restaurants",Philadelphia,39.943366813,-75.1638820306,Ms Tootsie's RBL,19147,612,3.5
"200 S Broad St, Fl 19",17MK8qagV374AuUA4sXuIA,"Cafes, Lounges, Bars, American (New), American (Traditional), Restaurants, Nightlife, Seafood",Philadelphia,39.949104,-75.164768,XIX Nineteen,19102,611,3.5
1355 N Front St,hUmHwBQtGg0iH-PZakQJDw,"Restaurants, Tapas/Small Plates, Italian, Szechuan, Cocktail Bars, Pizza, Chinese, Bars, Nightlife",Philadelphia,39.971709,-75.135062,Wm Mulherin's Sons,19122,610,4.5
1709 E Passyunk Ave,6CUkqed0rhHtFwQ2i7Otsw,"Nightlife, Bars, Restaurants, Wine Bars, Tapas/Small Plates, Spanish",Philadelphia,39.9280846,-75.1652545,Barcelona Wine Bar Passyunk,19148,608,4.5
509 S 2nd St,7mpYTDb24SywNMRn3yeakQ,"Event Planning & Services, Whiskey Bars, American (New), American (Traditional), Venues & Event Spaces, Bars, Nightlife, Restaurants",Philadelphia,39.9418766,-75.1451988,The Twisted Tail,19147,604,4.0
102 Rector St,luv3Y2AjoOhxYRY_u5tRJA,"Italian, Restaurants, Sandwiches, Food Delivery Services, Salad, Food, Pizza, Gluten-Free",Philadelphia,40.0247731,-75.2213162,The Couch Tomato Cafe,19127,604,4.0
3401 Walnut St,2PWmnUV2Leb2Loj0TqxCMA,"Tex-Mex, Mexican, Nightlife, Bars, Restaurants",Philadelphia,39.9533493175,-75.193518705,Mad Mex - University City,19104,601,3.0
420 S 2nd St,vF_QwGltBpVesMMGclzB9Q,"Restaurants, Pizza, Italian",Philadelphia,39.9424247094,-75.1456823945,Pizzeria Stella,19147,601,4.0
4266 Main St,ktM6aYuzqWd-kA8SIWswiQ,"Bakeries, Bars, Beer Bar, American (Traditional), Event Planning & Services, Food, American (New), Cocktail Bars, Nightlife, Caterers, Restaurants, Tapas/Small Plates, Breakfast & Brunch",Philadelphia,40.024735,-75.2222673,Winnie's Manayunk,19127,599,3.5
1313 North Lee St,uJZgom8HpK74xz8IojpT0A,"Italian, Specialty Food, Pizza, Food, Restaurants, Nightlife, Bars, Juice Bars & Smoothies",Philadelphia,39.970799,-75.134989433,Pizzeria Beddia,19122,599,4.0
1850 Benjamin Franklin Pkwy,xQE1fuwKCXJEBcJgSSCNbw,"Steakhouses, Restaurants, American (Traditional)",Philadelphia,39.957207,-75.1699827,Urban Farmer Philadelphia,19103,597,4.0
261 S 44th St,RadvqFuRTZNEfSZ_avPRog,"Tex-Mex, Tacos, Vegan, Restaurants, Mexican, Breakfast & Brunch",Philadelphia,39.9532203,-75.2102519,Honest Tom's Plant Based Taco Shop,19104,597,4.0
941 Spruce St,1UNJeHTsS7WS9RxRzHw06g,"Nightlife, Bars, American (New), Gastropubs, Restaurants",Philadelphia,39.9462043942,-75.1577992928,Varga Bar,19107,597,3.5
624 S 6th St,_tt4nysrN8JpzLLVXL-z5A,"Breakfast & Brunch, Creperies, French, Restaurants",Philadelphia,39.9412513696,-75.1526180588,Creperie Beau Monde & L'Etage,19147,595,4.0
"1201 Market Street, (guest entrance at 1200 Filbert Street).",lZX5_8qspEXtMJGFQ0-Mow,"Event Planning & Services, Hotels & Travel, Venues & Event Spaces, Hotels, Restaurants",Philadelphia,39.952534,-75.160578,Philadelphia Marriott Downtown,19107,595,3.0
121 S 16th St,-ATiAtTikuGuqvaW2O6tNA,"Sandwiches, American (New), Lounges, Nightlife, Bars, Restaurants, Breakfast & Brunch",Philadelphia,39.9504833638,-75.1673305865,Marathon,19102,593,3.5
1140 S 9th St,Jg9kkOl4sx2AXJVohbpSiw,"Barbeque, Coffee & Tea, Mexican, Cannabis Clinics, Event Planning & Services, Personal Chefs, Restaurants, Juice Bars & Smoothies, Food, Health & Medical",Philadelphia,39.935354,-75.158801,South Philly Barbacoa,19147,593,4.5
18 S 20th St,hkirr3WzSTx2d9cdP_NKSQ,"Comfort Food, Middle Eastern, Vegetarian, Kosher, Restaurants",Philadelphia,39.952706,-75.173477,Mama's Vegetarian,19103,592,4.5
1526 Packer Ave,eMiN8nm70jjKg8izikVWDA,"Seafood, Nightlife, Sports Bars, Bars, Restaurants, American (New)",Philadelphia,39.9114175,-75.1745111,Chickie's & Pete's,19145,590,3.5
12th St & Arch St,aa0xi7fgFJyA4qWux6vz0A,"Restaurants, Cheesesteaks, Sandwiches, Salad",Philadelphia,39.9532735358,-75.1593375206,Carmen's Famous Italian Hoagies,19107,589,3.5
59 N 11th St,UQZ4p6xb_7gY7UXHmBzceg,"Restaurants, Chinese, Shanghainese, Dim Sum",Philadelphia,39.9532889,-75.1578543,Tom's Dim Sum,19107,587,3.5
1001 Spruce St,mUIBtlWNPD7sz3rGGWQ1RA,"Mediterranean, Food, Greek, Restaurants, Breakfast & Brunch",Philadelphia,39.9463322,-75.1579478,Kanella,19107,579,4.5
4421 Main St,un0xxX785wfQfprryh0TjQ,"Burgers, Pubs, Restaurants, Hot Dogs, Nightlife, Beer, Wine & Spirits, Food, Bars",Philadelphia,40.026303576,-75.2255360669,Lucky's Last Chance,19127,579,4.5
262 S 20th St,XU3Fe8I8dD3FaOmzAQXLnQ,"Breakfast & Brunch, Sandwiches, Food, Restaurants, Bagels",Philadelphia,39.9485847,-75.1744427,Spread Bagelry,19103,579,3.5
1915 S Broad St,ozOneB4jXOD6hv5WBGj4KQ,"Restaurants, Italian",Philadelphia,39.9263553,-75.1689367,Ristorante Pesto,19148,578,4.5
2313 Frankford Ave,g2zwbLIqxtN9nGGuL43trg,"Restaurants, Pizza, Specialty Food, Museums, Food, Arts & Entertainment",Philadelphia,39.9806746,-75.1280968,Pizza Brain,19125,575,4.0
1210 Walnut St,Hr6aM0s-woIJaW6DJSbvNQ,"Sushi Bars, Restaurants, Lounges, Ramen, Japanese, Nightlife, Bars",Philadelphia,39.948896,-75.1611319,Aki Nom Nom Sushi & Ramen,19107,573,3.5
1901 Callowhill St,OChSrnaj5tQ1-wm7zoVT4w,"Tapas/Small Plates, Restaurants, Barbeque, Japanese, Asian Fusion",Philadelphia,39.9607160127,-75.1701319521,Gyu-Kaku Japanese BBQ,19130,569,3.5
2130 Fairmount Ave,1Ck2drCXGh1h5bhc9aIRpg,"Restaurants, American (New), Nightlife, Barbeque, Bars",Philadelphia,39.9670823,-75.1733028,Jack's Firehouse,19130,569,3.5
128 S 19th St,YzluF3FNGjnW-tOrLZt8JA,"Sushi Bars, Japanese, Restaurants",Philadelphia,39.9509073,-75.1723929,Zama,19103,566,3.5
611 S 7th St,M_EpyAH1CZZVlhxfYBLOqg,"Pizza, Italian, Salad, Restaurants",Philadelphia,39.9418368,-75.153837,Nomad Pizza Company,19147,566,4.5
1315 Sansom St,vtSisxaozZ7HWpBl_W7VaQ,"American (New), Bars, Nightlife, Cocktail Bars, Arts & Entertainment, Lounges, Event Planning & Services, Venues & Event Spaces, Restaurants, Music Venues",Philadelphia,39.9500001533,-75.1625513634,Time,19107,565,4.0
105 S 13th St,Ou-_OQUNvBcaAoRU0XPtaQ,"Iberian, Wine Bars, Spanish, Nightlife, Latin American, Bars, Restaurants",Philadelphia,39.9502082,-75.161844,Jamonera,19107,563,4.0
117 Chestnut St,jEasa4Sbzy4NdLyzPPgQyg,"Breweries, Bars, Restaurants, Food, Nightlife, American (New), Pubs, Gastropubs",Philadelphia,39.9484739,-75.1435556,2nd Story Brewing,19106,561,4.0
110 S 16th St,WYel6hMEEPNwzVUlVBacbw,"Salad, Restaurants, Noodles, Juice Bars & Smoothies, Vegetarian, Food, Fruits & Veggies, Specialty Food, Vegan",Philadelphia,39.9507231094,-75.1675008738,honeygrow,19102,560,3.5
541 E Girard Ave,LO5yBY9uoowtq7FsaKPJXA,"Gastropubs, Restaurants",Philadelphia,39.9714957,-75.1273589,Kraftwork,19125,559,4.0
1648 E Passyunk Ave,QhgrhVKlXZtSY6gRThf8zA,"Cocktail Bars, Dim Sum, Nightlife, Restaurants, Chinese, Asian Fusion, Bars",Philadelphia,39.9289898,-75.1647415,Bing Bing Dim Sum,19148,557,4.0
207 Chestnut St,XJnTY0wG45x9GBrgfNpkCw,"Specialty Food, Breakfast & Brunch, Nightlife, Mexican, Food, Bars, Dance Clubs, Pubs, Cocktail Bars, Restaurants",Philadelphia,39.9484906,-75.1444675,Lucha Cartel,19106,556,3.5
1201 Frankford Ave,6x9hcZ1CJ4S9avBgPGS7-Q,"Seafood, Greek, Food, Music Venues, American (New), Sandwiches, Breakfast & Brunch, Beer, Wine & Spirits, Restaurants, Bars, Arts & Entertainment, Nightlife, Burgers, Gastropubs",Philadelphia,39.9690922,-75.134266,Johnny Brenda's,19125,556,4.0
200 Market St,ldr7iDtxFXX-q7tJuXqlGQ,"Pizza, Beer, Wine & Spirits, Food, Nightlife, American (New), Italian, Restaurants, Breakfast & Brunch, Bars, American (Traditional)",Philadelphia,39.9497082,-75.1439349,Revolution House,19106,554,3.5
1901 Callowhill St,jULIPydhMj18KOI5OHTwfA,"Tacos, Restaurants, Mexican",Philadelphia,39.9609147337,-75.1708267829,Buena Onda,19130,552,4.0
1730 Chestnut St,4hv1n1VBzMvE-T4UtIcOcw,"Restaurants, Coffee & Tea, Breakfast & Brunch, American (New), Chocolatiers & Shops, Meat Shops, Italian, Seafood Markets, Fruits & Veggies, Sandwiches, Shopping, Grocery, Specialty Food, Desserts, Food, Cheese Shops",Philadelphia,39.951311,-75.1700653,Di Bruno Bros.,19103,550,4.0
1837 Chestnut St,GUMVStVaJfWmCIpQA4TtHg,"Restaurants, Japanese, Sushi Bars",Philadelphia,39.952045,-75.17167,Crazy Sushi,19103,550,4.0
701 S 50th St,99e7bysta1myyrQogFEWUQ,"Beer, Wine & Spirits, Restaurants, Breweries, Pizza, Local Flavor, American (New), Vegetarian, Food, Brewpubs",Philadelphia,39.9477306374,-75.2227761947,Dock Street Brewery,19143,549,4.0
120 Lombard St,L4kfcADLCU4T33i7Z0CkuA,"Restaurants, Bars, Wine Bars, Mediterranean, Italian, Nightlife",Philadelphia,39.9419372505,-75.1446834884,Bistro Romano,19147,546,4.0
1225 Sansom St,rVGxva6cx2eID4ghDLVHJg,"Japanese, Restaurants, Korean, Sushi Bars",Philadelphia,39.9498493,-75.1615489,1225Raw Sushi and Sake Lounge,19107,545,3.5
909 Arch St,9c7MUiE6VI8NesjPdj5FkA,"Restaurants, Sushi Bars, Japanese, Bubble Tea, Taiwanese, Food",Philadelphia,39.9536791,-75.1551081,Bubblefish,19107,544,4.0
34 S Front St,arKiXax3ScSM_z3O-0CIyw,"Sports Bars, Restaurants, Bars, American (Traditional), Seafood, Nightlife, Italian, Beer Bar",Philadelphia,39.948706,-75.142687,Spasso Italian Grill,19106,541,4.0
48 N 10th St,QGYzYUMsQe6k7__LD91E5w,"Vietnamese, Restaurants, Sandwiches, Specialty Food, Ethnic Food, Food",Philadelphia,39.953229,-75.156582,QT Vietnamese Sandwich,19107,538,4.5
413 E Girard Ave,B9Z3i-n9y9FfMU3CQxtThA,"Restaurants, Burgers",Philadelphia,39.9705512,-75.1301184,Sketch Burger,19125,534,4.0
5734 Old 2nd St,itv5mVA2lkp_ivhSdmKGgw,"Korean, Restaurants, Japanese",Philadelphia,40.0385555068,-75.1242795983,Seorabol Korean Restaurant,19120,531,4.0
2212 S St,lRbHFOIFuusN2WOR_ypQ_A,"Restaurants, Coffee & Tea, Sandwiches, Desserts, Food, Breakfast & Brunch",Philadelphia,39.9451562,-75.179105,Ants Pants Café,19146,531,4.0
20 S 18th St,pm1bStJuol5XmxE_atZhCQ,"Restaurants, Japanese, Ramen",Philadelphia,39.9524929,-75.1702943,Nom Nom Ramen,19103,531,4.0
1219 S 2nd St,Oun4NN-u5yiHIxDqtJnxgA,"Restaurants, Korean, American (Traditional), Breakfast & Brunch, Donuts, Food, Coffee & Tea",Philadelphia,39.932223,-75.147463,Federal Donuts,19147,530,4.0
"1509 Mifflin St, Newbold",YqmClmk7oLcDzPWKHzgA-Q,"Breakfast & Brunch, Bars, Nightlife, Restaurants, Gastropubs, Pubs",Philadelphia,39.927216,-75.171477,South Philadelphia Tap Room,19145,530,4.0
746 S 6th St,jXtaxB2b64nA4uy13i024A,"Seafood, Restaurants",Philadelphia,39.939989,-75.152854,Little Fish,19147,529,4.5
1122 Washington Ave,PJjkH_VZeQwxEJvlQ-v7wA,"Restaurants, Asian Fusion, Vietnamese",Philadelphia,39.9372212861,-75.1628434626,Pho 75,19147,529,4.5
1318 Chestnut St,_f3JQU6IXpGmTLaSqGy79g,"German, Beer Bar, Food, Bars, Nightlife, Restaurants, Beer, Wine & Spirits, Beer Gardens",Philadelphia,39.9503152253,-75.1624865435,BRÜ Craft & Wurst,19107,526,3.5
1023 Race St,838bEDzZSPveDkAGrhVWYQ,"Restaurants, Chinese, Dim Sum, Seafood",Philadelphia,39.9557218,-75.1567726,Ocean Harbor,19107,524,3.0
"253 S 16th St, Apt 1",4_VDvhKpKSsj7jZYdocZYA,"Restaurants, Italian",Philadelphia,39.947783,-75.1677739,La Viola,19102,524,3.5
1001 Race St,T9C1od-JorSPXwXgzSqM9Q,"Seafood, Chicken Shop, Restaurants, Chinese",Philadelphia,39.95549425,-75.1559746,David's Mai Lai Wah,19107,522,3.0
132 Chestnut St,nR3VW9i2K8033QY0ZMTisw,"Sushi Bars, Restaurants, Japanese, Asian Fusion, Event Planning & Services, Caterers",Philadelphia,39.948163,-75.1437162,Zento Contemporary Japanese Cuisine,19106,519,4.0
41 S 16th St,PmJx4zNYCyR7Hx9AmgUUJA,"Burgers, Chicken Wings, Cheesesteaks, Steakhouses, Food, Restaurants",Philadelphia,39.9514989281,-75.1669257544,Steve's Prince of Steaks,19102,519,3.0
31 S 18th St,v45E6gg6MrAziTepkiWByA,"Wine Bars, Bars, American (New), Nightlife, Tapas/Small Plates, Cocktail Bars, Restaurants, Beer Gardens, Salad",Philadelphia,39.9522045,-75.1695409,Harper's Garden,19103,516,4.0
325 N Christopher Columbus Blvd,Gr6nYrQ_-3p4LcE4M84lTw,"Nightlife, Restaurants, Eatertainment, Bars, American (Traditional), Arts & Entertainment, Sports Bars, Arcades",Philadelphia,39.9570239499,-75.1374835117,Dave & Buster's,19106,515,2.5
4004 Chestnut St,YN4Kk751tmdvoarGo8z7_A,"Buffets, Pakistani, Restaurants, Indian, Vegan, Vegetarian",Philadelphia,39.9553921,-75.2026195,New Delhi Indian Restaurant,19104,514,4.0
1526 Sansom St,mlrzM-jUkKot28XJhScuuA,"Falafel, Middle Eastern, Mediterranean, Sandwiches, Vegan, Restaurants",Philadelphia,39.9502275,-75.1668635,Goldie,19102,514,4.5
1620 South St,lWedWkinrM5j13pyimbpbA,"Restaurants, Coffee & Tea, Food, Breakfast & Brunch, Event Planning & Services, American (Traditional), Caterers",Philadelphia,39.944043,-75.1695127,Miles Table,19146,514,4.5
100 S Independence Mall W,1OfhM-ZKvcpxyxptCCzEwA,"Bars, Nightlife, American (New), Gastropubs, Food Trucks, Parks, Restaurants, Beer Gardens, Active Life, Barbeque, Food, Beer, Wine & Spirits, American (Traditional)",Philadelphia,39.9502943,-75.150981,Independence Beer Garden,19106,513,3.5
124 S 15th St,woTZpX92uByUgliPrh39Mg,"Cocktail Bars, American (New), Bars, Restaurants, Steakhouses, Seafood, Nightlife",Philadelphia,39.9501744,-75.1659335862,Ocean Prime,19102,513,4.0
2538 Welsh Rd,434A83c2ig6QxsZjrjclpQ,"Restaurants, Mexican, Nightlife, Bars",Philadelphia,40.0726066,-75.0341246,Las Margaritas,19152,511,3.5
206 Market St,7pAgxBMUjrVPH7xh3fn-gw,"Food, Restaurants, Cheesesteaks, Sandwiches, Desserts, Burgers",Philadelphia,39.9496989,-75.1441608,Oh Brother Philly,19106,511,4.5
2230 Fairmount Ave,-OIUunijjcq_ZzyyQhPPFQ,"Restaurants, Greek, Mediterranean",Philadelphia,39.9671642,-75.1748969,Zorba's Taverna,19130,510,4.5
1335 Frankford Ave,MlXH9dWYDFEBbwuGStlfZg,"Food, Cafes, Restaurants, Coffee & Tea, Breakfast & Brunch",Philadelphia,39.9712343,-75.1342432,La Colombe Coffee,19125,509,4.5
1114 Frankford Ave,YBak8o0xCiNN4sXr3izLbg,"Restaurants, Bars, Arcades, Tacos, Nightlife, Mexican, Arts & Entertainment",Philadelphia,39.9673696,-75.1345292,Barcade,19123,506,3.5
1200 Market St,D5V0Fawd6ODVgqCY8xngsw,"Event Planning & Services, Hotels & Travel, Restaurants, Hotels, Seafood",Philadelphia,39.9517461,-75.1602286,Loews Philadelphia Hotel,19107,505,3.5
1930 Chestnut St,0S3TvsmbCeOZ9UitnpRd1A,"Shanghainese, Tapas Bars, Cantonese, Seafood, Dim Sum, Chinese, Asian Fusion, Restaurants, Tapas/Small Plates, Szechuan",Philadelphia,39.9518328,-75.173394,Dim Sum House,19103,505,4.0
951 Wolf St,Pl_9HzOa8uy_YOUxgonzGw,"Mexican, Restaurants, Food",Philadelphia,39.9211192555,-75.1632766118,Los Gallos Mexican Taqueria,19148,503,4.5
1200 Arch St,pP_jeWrWq-lvMitmkM2Gkw,"Burgers, Ice Cream & Frozen Yogurt, Food, Hot Dogs, Restaurants, American (New), American (Traditional)",Philadelphia,39.9535213,-75.1597442,BurgerFi,19103,502,3.0
600 N Broad St,KscVqYYG7ziAroZhfNb0Ng,"Arts & Entertainment, Restaurants, Bars, Nightlife, Southern, Jazz & Blues",Philadelphia,39.964395,-75.161227,South,19130,501,4.0
217 W George St,9w6o_eyKCSNKgMtAuv6KWg,"Restaurants, Patisserie/Cake Shop, Cafes, Breakfast & Brunch, Coffee & Tea, Food, American (Traditional)",Philadelphia,39.9677290083,-75.1406717064,One Shot Coffee,19123,498,4.0
1400 S Christopher Columbus Blvd,h7n599RGtvFLmLycugT2MQ,"Soul Food, Breakfast & Brunch, Southern, Restaurants, Salad",Philadelphia,39.9293522,-75.1454738,Warmdaddy's,19147,498,3.5
100 N18th St,tYn8hGpZiRgJ8cP2FcI_YQ,"Food, Restaurants, Bars, Nightlife, American (New), Beer, Wine & Spirits, Gastropubs",Philadelphia,39.9557454576,-75.1698437,City Tap House,19103,497,4.0
2859 Holme Ave,O6hY9yenifuRXrpc4TfgsQ,"Restaurants, American (New), Burgers, Breakfast & Brunch, Sandwiches",Philadelphia,40.0571673033,-75.0304835714,The Blue Duck,19152,495,4.0
205 S 18th St,4tU9hlfzrCpcGWTIm-OKVA,"Breakfast & Brunch, Lounges, Restaurants, Food, Burgers, American (Traditional), Asian Fusion, American (New), Tapas Bars, French, Bars, Beer, Wine & Spirits, Nightlife",Philadelphia,39.949638,-75.170671,Rouge,19103,495,3.5
4333 Spruce St,s2JiYzE7i68cXIV6YEcVTw,"Breakfast & Brunch, Bars, American (New), Nightlife, Restaurants",Philadelphia,39.952821,-75.210442,Local 44,19104,494,3.5
243 Chestnut St,rgSHLh2Le0Un82FDxbq0mg,"American (New), Restaurants",Philadelphia,39.948901,-75.145787,The Little Lion,19106,494,4.0
161 W Girard Ave,RleiW2_QLyxgNjFfqDoZpw,"Italian, Gluten-Free, Food, Restaurants",Philadelphia,39.9695788,-75.1383832,Modo Mio,19123,492,4.0
1312 Spruce St,wUnLSg_GKfEIQ5CQQ770_g,"Italian, Cuban, Restaurants",Philadelphia,39.9466441,-75.1631867,Vetri Cucina,19107,489,4.5
263 S 15th St,NUJrCPU51Cvip4ayZD1P5g,"Nightlife, Restaurants, Bars, Mexican, Tex-Mex",Philadelphia,39.9476637,-75.166164,Jose Pistola's,19102,488,3.5
533 N 22nd St,40O7uKX-uAG_JDrS-OM85w,"Japanese, Sushi Bars, Asian Fusion, Restaurants",Philadelphia,39.9646735,-75.1741002,Umai Umai,19130,488,4.5
7200 Bustleton Ave,gYYMQeg4X8FUcCxXI4c2Tw,"Restaurants, Sandwiches, Cheesesteaks, Steakhouses, American (Traditional)",Philadelphia,40.0456111,-75.0609207,Steve's Prince of Steaks,19149,488,4.0
600 Washington Ave,2fJ-WxJlUN6azp3bzrJ0zA,"Restaurants, Chinese, Vietnamese",Philadelphia,39.9344521341,-75.1544015359,Pho Ha,19147,485,4.0
51 N 12th St,V6Om7YZhlRQRU7WfuxHq8Q,"Restaurants, Cajun/Creole",Philadelphia,39.9533224742,-75.1590000821,Beck's Cajun Cafe,19107,485,4.0
909 N 2nd St,R0JUjyjGEzUlY3auVhY_tg,"Restaurants, Vegan, Venues & Event Spaces, Active Life, American (Traditional), Sports Bars, Lounges, Bowling, Bars, Nightlife, Event Planning & Services",Philadelphia,39.9644125073,-75.1403277254,North Bowl,19123,484,4.0
1028 Arch St,KQgCflC8eqJU5kvJkByXzw,"Japanese, Bubble Tea, Shaved Ice, Food, Izakaya, Sushi Bars, Ramen, Restaurants, Bars, Cocktail Bars, Beer, Wine & Spirits, Nightlife",Philadelphia,39.9535423,-75.1574552,Yamitsuki Ramen,19107,478,3.5
620 S 9th St,7hpUoYdAVToZXwuPRgoqdA,"Restaurants, Food, Coffee & Tea",Philadelphia,39.9419516309,-75.1573562007,Chapterhouse Café & Gallery,19147,477,4.5
4201 Main St,KDplhtRYnHOCnuIjIGR8fA,"Nightlife, Comfort Food, American (New), Event Planning & Services, Beer Bar, Venues & Event Spaces, Restaurants, Bars, Cocktail Bars",Philadelphia,40.0238229063,-75.2201271057,The Goat's Beard,19127,477,4.0
1408 South St,JPfe9B-RLrE5Nz75kcKImQ,"Vegan, Cheesesteaks, Restaurants, Vegetarian, Sandwiches",Philadelphia,39.943571,-75.1659929,Govinda's Vegetarian,19146,476,3.5
2030 Chestnut St,JDv3h1xRFIW8fXckqgTdRg,"Restaurants, Karaoke, Bars, Nightlife, Japanese, Sushi Bars",Philadelphia,39.9520801,-75.1747619,Fuji Mountain,19103,475,4.0
601 N 21st St,M1q0l_VuI6MqRYLWGVhCCw,"Breakfast & Brunch, Bars, Pubs, Restaurants, Nightlife, Belgian",Philadelphia,39.9653226,-75.1725313,The Belgian Café,19130,474,3.5
908 Washington Ave,f2RHDdXezLHILvM7v1xOVA,"Mexican, Restaurants",Philadelphia,39.93613,-75.15913,Taqueria La Veracruzana,19147,472,4.0
1009 Christian St,oziGQYLaEWOpNmPKrZP86g,"Food, Restaurants, Desserts, Bakeries",Philadelphia,39.9393373391,-75.1597427314,Isgro Pastries,19147,472,4.5
1524 S St,oGMwCmV1EQZgCdylAbK9ow,"Southern, Restaurants, Seafood, Salad, American (New)",Philadelphia,39.9437809,-75.1681729,Rex at the Royal,19146,471,4.5
901 S 10th St,I1H5s9cVCGh1nH-4bhsSDA,"Restaurants, Italian, Pizza, Breakfast & Brunch",Philadelphia,39.9390394,-75.159227,Santucci's Original Square Pizza,19147,469,3.5
1628 Sansom St,mVV95BIwhFOa7TNH9pVMGA,"Indian, Restaurants",Philadelphia,39.9505197703,-75.1681517159,Philadelphia Chutney Company,19103,467,4.0
3432 Sansom St,6GXMHrB8u-3nq87zE1Av0w,"Restaurants, Soul Food, Barbeque, Sandwiches, Burgers, Caterers, Event Planning & Services",Philadelphia,39.953630921,-75.1929846337,Baby Blues BBQ Philly,19104,466,3.5
1920 Chestnut St,qBwOLby0sOJd3QG1o76W2w,"Restaurants, Tapas/Small Plates, Bars, Nightlife, Cocktail Bars, Indian, Breakfast & Brunch",Philadelphia,39.9517805,-75.1729152,Veda - Modern Indian Bistro,19103,465,4.0
224 S 40th St,ADe114o7Z4vb1O6HkM6YEA,"Greek, Fast Food, Restaurants, Breakfast & Brunch, Mediterranean, Salad",Philadelphia,39.9534811107,-75.2029253184,Greek Lady,19104,461,3.5
138 N 10th St,7z16CBc74GhbyqalwZrJUQ,"Noodles, Asian Fusion, Restaurants, Chinese, Seafood",Philadelphia,39.954754,-75.156191,Ting Wong Restaurant,19107,461,4.0
4410 Main St,GWv1-6HFvZf4cOy1J6_CKQ,"Mexican, Restaurants",Philadelphia,40.0258865,-75.2250971,Taqueria Feliz,19127,460,4.0
4618 Baltimore Ave,U30ggGzFpXvc2NZYwOW3qg,"Cafes, Pakistani, Juice Bars & Smoothies, Restaurants, Ice Cream & Frozen Yogurt, Halal, Indian, Coffee & Tea, Food",Philadelphia,39.9486639126,-75.2158315415,Mood Cafe,19143,458,4.5
1822 Callowhill St,BnprLJ4Lr33--YjTmgk9Zg,"Restaurants, Korean, Japanese, Sushi Bars",Philadelphia,39.9602728,-75.1692394,Doma,19130,457,4.0
2028 Fairmount Ave,KHQXmUFiAD0FHvrMSakJBA,"Nightlife, Vegetarian, Wine Bars, American (New), Restaurants, Bars, Seafood, Vegan",Philadelphia,39.967061,-75.171243,Fare,19130,456,3.5
1148 S 11th St,Y7EalRsCafsApK5DcL_mTg,"Nightlife, Bars, American (Traditional), Pubs, Breakfast & Brunch, Restaurants, Beer Bar",Philadelphia,39.9358085,-75.1620574,Devil's Den,19147,455,3.5
1500 Locust St,xxL2_-oExRCwKs_Nyr0KiQ,"Pubs, Restaurants, Bars, Nightlife, Irish, Irish Pub",Philadelphia,39.9483513654,-75.1666795343,Fadó Irish Pub,19102,454,3.5
123 Chestnut St,QXGnmsKYANxOyZBqM-zlJA,"Nightlife, Irish, Restaurants, Bars, Gastropubs, Pubs",Philadelphia,39.948524,-75.1437297,The Plough & the Stars,19106,454,3.5
131 N 10th St,oyA87-Q_vqnmxVOn_auJQQ,"Restaurants, Chinese, Comfort Food",Philadelphia,39.9543751,-75.155929,Spice C,19107,453,4.0
114 Chestnut St,TRwPE6wsoAL6_fRaFdB4FA,"Restaurants, Indian",Philadelphia,39.948182,-75.1431548,Karma Restaurant & Bar,19106,453,4.0
408 S 2nd St,1UNorskttXSWuEcgzKzXcA,"Lounges, Restaurants, Asian Fusion, Mexican, Latin American, Nightlife, Bars",Philadelphia,39.9428742,-75.1456449,Xochitl,19147,453,3.5
2012 Sansom St,Mt6XTQfwk2DUD3AK29YIBg,"Italian, Restaurants",Philadelphia,39.9512428,-75.1741148,Melograno,19103,451,3.5
"3939 Chestnut St, Fl 2",zU5PPd9j4bYC_MepNSEDcA,"Restaurants, Chinese, Nightlife, Dim Sum, Event Planning & Services, Bars, Cantonese, Venues & Event Spaces",Philadelphia,39.9557715,-75.2016544,Dim Sum House,19104,451,4.0
743 S 4th St,7cpj7hjDTX5fb-6pYcZiGQ,"Coffee & Tea, Food, Comfort Food, American (New), Breakfast & Brunch, Restaurants",Philadelphia,39.93906,-75.14959,Hungry Pigeon,19147,449,4.0
622 S 6th St,BryQISFnkCdcJET-tpAx3w,"Restaurants, Middle Eastern, Breakfast & Brunch, Turkish, Mediterranean, Halal",Philadelphia,39.9414231194,-75.1524895976,Isot Mediterranean Cuisine,19147,448,4.5
32 S 18th St,5nqWNo7uVU1Zxm4tjnvkUw,"Japanese, Asian Fusion, Fast Food, Restaurants",Philadelphia,39.9521423264,-75.1702871165,Hai Street Kitchen & Co,19103,447,3.5
1311 Sansom St,KVFUBgmPEHGUaJNkpMGcLw,"Mediterranean, Greek, Restaurants, Tapas/Small Plates",Philadelphia,39.9499818693,-75.1624407579,Opa,19107,446,3.5
226 Market St,SIoCIxjn4jLt2O-4DajWJw,"Nightlife, Restaurants, American (New), Bars, Pubs",Philadelphia,39.949794,-75.144739,Mac's Tavern,19106,446,3.5
1138 S 13th St,qRgeV1CMZawRblc2qjHo_g,"Restaurants, Mexican",Philadelphia,39.936492,-75.165011,El Jarocho,19147,445,4.0
707 Chestnut St,jziliEq8Zum-EynD5v-Hvg,"Peruvian, Chinese, Restaurants, Asian Fusion, Latin American",Philadelphia,39.949786,-75.152623,Chifa,19106,444,4.0
317 Market St,7NwFNLC0SwX1SwQYlfF5yw,"American (Traditional), Restaurants, Sandwiches, Caterers, Breakfast & Brunch, Coffee & Tea, Cafes, Event Planning & Services, Burgers, American (New), Vegetarian, Food",Philadelphia,39.9504011,-75.1463684,Luna Café,19106,444,4.0
1113 Walnut St,9qXd3Frdpw2NFesclk7nPg,"American (New), Gastropubs, Bars, Nightlife, Food, Restaurants",Philadelphia,39.948732,-75.1591786,The Farmers' Cabinet,19107,444,3.5
216 S 11th St,3FKIev7ZB_KE6XHL9sUJCg,"Nightlife, Event Planning & Services, Local Flavor, Bars, American (Traditional), Restaurants, Unofficial Yelp Events",Philadelphia,39.948089,-75.1592111423,Strangelove's,19107,443,4.0
1504 Sansom St,Z5po0aTuzKKblek5y6Sp8Q,"Food, Burgers, Restaurants",Philadelphia,39.9503631,-75.1662246,500 Degrees,19102,443,3.5
135 S 18th St,3eJMsl41qwhcYlvoTF1ElQ,"Food, Breakfast & Brunch, Modern European, Restaurants, Beer, Wine & Spirits, American (New)",Philadelphia,39.950323,-75.170538,a.kitchen,19103,441,3.5
1836 Callowhill St,Lw1gzZZGI2GFQc6BI5zyJw,"American (Traditional), Restaurants",Philadelphia,39.960395,-75.169675,Kite & Key,19130,439,3.5
1030 N 2nd St,GKBN0jG6f9XhvWmAEOgYPw,"Apartments, Restaurants, Breakfast & Brunch, Tapas Bars, Nightlife, Spanish, Real Estate, Home Services, Bars",Philadelphia,39.967136901,-75.1402146458,Bar Ferdinand,19123,438,3.5
1303 Dickinson St,Wtr51cNrv1pYyIRg_IawYQ,"Restaurants, Bars, Performing Arts, Gluten-Free, Wine Bars, Nightlife, Italian, Arts & Entertainment",Philadelphia,39.931653,-75.166327,The Victor Cafe,19147,437,4.5
1706 Locust St,phsLOuBeiYI43hglvWK96Q,"Food, Vegetarian, Coffee & Tea, Bakeries, Juice Bars & Smoothies, Food Delivery Services, Gluten-Free, Cafes, Restaurants, Breakfast & Brunch, Vegan",Philadelphia,39.9487961,-75.1697449,P S & Co,19103,437,4.0
1142 Crease St,EzjysPg2-lVX1E0ibStUXw,"Restaurants, Pakistani, Indian",Philadelphia,39.9692049,-75.1325733,Ekta Indian Cuisine,19125,436,4.0
1102 Chestnut St,_34KJPR-T0HP9USJw1nCfw,"Soul Food, Fast Food, Restaurants, Vegetarian, Noodles, Ramen, Japanese, Vegan, Comfort Food",Philadelphia,39.95001,-75.158862,Hiro Ramen House,19107,435,4.0
210 W Rittenhouse Sq,e3Y3hDpwHc9RmQlJtIgHuw,"Restaurants, Breakfast & Brunch, Brazilian, American (New), French, Asian Fusion",Philadelphia,39.9499125,-75.1736448,Lacroix Restaurant at The Rittenhouse,19103,434,4.5
1711 Fairmount Ave,zpKTPWoW56wF6d9qNnxM3Q,"Food, Sandwiches, Restaurants, Breakfast & Brunch, Coffee & Tea",Philadelphia,39.9673313,-75.1658216,Rybread,19130,433,4.0
204 S 17th St,QWZuvqTYTMncVdhulUU73A,"Desserts, Chocolatiers & Shops, Food, Restaurants, Bakeries, Specialty Food, Coffee & Tea",Philadelphia,39.9497118,-75.169361,Miel Patisserie,19103,432,3.5
1713 South St,bIGFd99r3iUNB0xshlZ5Sw,"American (New), Restaurants",Philadelphia,39.9444366,-75.1708063,Pumpkin,19146,432,4.0
1225 Walnut St,LgAuYz5cQe3zTxuteJ4VyQ,"Sandwiches, Restaurants, Cafes, Vegetarian",Philadelphia,39.949130566,-75.1616937821,Fuel Center City,19107,432,3.5
248 S 11th St,OAWa1WML2V1ZLJGD6V3nBQ,"Coffee & Tea, Sandwiches, Delis, Diners, Food, Restaurants, Salad, Breakfast & Brunch",Philadelphia,39.9471698,-75.1594404,Middle Child,19107,426,4.5
129 W Laurel St,BgQOm2TuoF1UmD4e7BOUjA,"American (New), Bars, Sandwiches, Restaurants, American (Traditional), Nightlife, Cocktail Bars",Philadelphia,39.9651094,-75.1389069,Jerry's Bar,19123,424,3.5
4251 Main St,gCcJTKC40CL0XtYYGfcXDw,"Juice Bars & Smoothies, Food, Mediterranean, Greek, Restaurants, Sandwiches",Philadelphia,40.024774,-75.2214354,Smiley's Cafe,19127,423,4.5
106 S 13th St,6F-6mFFNw2YXN7lD_Gukcg,"Restaurants, Mexican",Philadelphia,39.950081,-75.162148,Lolita,19107,423,4.0
221 N 11th St,zRjUMHQJ5gAmFhcXZtLacA,"Vietnamese, Restaurants",Philadelphia,39.9563297,-75.157069,Vietnam Restaurant,19107,421,4.0
936 S 9th St,Vnagnur1os0ZduOpvDH27A,"Restaurants, Italian",Philadelphia,39.9379512,-75.158238,Villa Di Roma,19147,421,4.0
261 S 20th St,SDL247FlOnScJfuNjZESxg,"Restaurants, American (New), Desserts, Middle Eastern, Asian Fusion, Cocktail Bars, Bars, Nightlife, Food",Philadelphia,39.9486084,-75.1740323,Twenty Manning,19103,421,3.5
20th & Ludlow St,rQW9iupvhk6ScPn2VPNLVQ,"Food Trucks, Falafel, Food Stands, Food, Mediterranean, Restaurants, Middle Eastern",Philadelphia,39.952932,-75.173293,Octopus Falafel Truck,19103,420,4.5
"1100 S Christopher Columbus Blvd, Unit 22",IjMs1n7UelI7ev_5IDl5kA,"Coffee & Tea, Beauty & Spas, Cosmetics & Beauty Supply, Shopping, Arts & Crafts, Costumes, Restaurants, Vietnamese, Food",Philadelphia,39.932705,-75.14438,Pho Saigon,19147,419,4.0
604 South St,khH0QtNyUjcExh9i2CwGfg,"Restaurants, American (New)",Philadelphia,39.9419068,-75.152643,Serpico,19147,419,4.0
9645 James St,P2Lm1g_RztvIaH4daQsXoQ,"Breakfast & Brunch, Cafes, American (New), Pubs, Restaurants, Bars, Nightlife",Philadelphia,40.053857,-74.98396,Three Monkeys Cafe,19114,419,3.5
3408 Sansom St,_PvljXZHQlUmL8SuOXF8ug,"Irish, Gastropubs, Pubs, American (Traditional), Nightlife, Bars, Restaurants",Philadelphia,39.9535171,-75.1926364399,New Deck Tavern,19104,419,3.5
1501 Spruce St,L0c6-mnkcV9fXLk0--dkWQ,"American (Traditional), Bars, Sports Bars, Restaurants, Nightlife, Buffets, Burgers",Philadelphia,39.94731,-75.166551911,Fox and Hound,19102,418,2.5
1508 Sansom St,PVVFos1LDfD7iETY0w4vaA,"Kosher, Chinese, Restaurants, Vegetarian, Vegan",Philadelphia,39.950215,-75.166346,Su Xing House,19102,417,4.0
4356 Main St,bffLbfi1IEAff5C2IHJvFA,"Chinese, Restaurants",Philadelphia,40.0253737,-75.2238628,Han Dynasty,19127,417,3.5
3549 Chestnut St,MzFhaFNbE03zF84BPkN7yQ,"Restaurants, Ethnic Food, Noodles, Food, Dim Sum, Specialty Food, Chinese",Philadelphia,39.9548759225,-75.1939325212,Sang Kee Noodle House,19104,417,3.0
762 S 10th St,erz6oUEJdx787WyOlxMARw,"Italian, Restaurants",Philadelphia,39.9400687845,-75.1594229629,Dante & Luigi's,19147,415,4.0
218 N 13th St,VP8HMhVt-pKmqGNmDW4-TQ,"Desserts, Bars, Food, Coffee & Tea, Nightlife, Dim Sum, Restaurants, Cocktail Bars, Cantonese, Chinese",Philadelphia,39.956593,-75.160772,Nom Wah Philadelphia,19107,414,4.0
1722 Sansom St,ZDdNEwBENLXBT3jjQD5STQ,"Korean, Restaurants, Asian Fusion, Soup",Philadelphia,39.95071,-75.16971,Giwa Korean Kitchen,19103,412,3.5
123 S 23rd St,IcLm9Z1zphLnzUvrFK6aiA,"Thai, Restaurants",Philadelphia,39.951799,-75.178213,Erawan Thai Cuisine,19103,411,3.5
1100 N Front St,GWqPmrWu0kXB_-gB1H-j6A,"Restaurants, Chicken Shop, Chicken Wings, Sandwiches, Comfort Food, American (Traditional), Soul Food",Philadelphia,39.9674815,-75.136957,Love & Honey Fried Chicken,19123,409,4.5
1608 South St,8P8HIysyyGbG8_94cG1Jyg,"American (New), Bars, Wine Bars, Italian, Restaurants, Comfort Food, Seafood, Nightlife",Philadelphia,39.9440110213,-75.1691403878,Entree BYOB,19146,408,4.5
160 N 3rd St,2qHkwqao9GyxnDXHzCv4JA,"Specialty Food, Salad, American (New), Sandwiches, Food, Desserts, Breakfast & Brunch, Restaurants, Cheese Shops",Philadelphia,39.9538296,-75.1449499,Wedge + Fig,19106,408,4.0
915 Arch St,s9ceDy-cVHe0uzvZpWq87Q,"Szechuan, Chinese, Restaurants, Noodles, Soup",Philadelphia,39.9536815,-75.1554273,E Mei Restaurant,19107,407,4.0
129 S 13th St,2pLIQ0RHSmUbF0eIRT0LYg,"Wine Bars, Bars, Nightlife, French, Restaurants",Philadelphia,39.9495566,-75.1617091,Vintage Wine Bar,19107,406,4.0
926 S St,hcxea89M_U__LADtu3C0kA,"American (New), French, Restaurants, American (Traditional)",Philadelphia,39.942621512,-75.1579622906,Supper,19147,402,3.5
4535 N 5th St,_OgwyI_0mGs620_ZfKgzbg,"Latin American, American (New), Caribbean, Dance Clubs, Bars, Restaurants, Cuban, Nightlife",Philadelphia,40.0205736,-75.1337987,Tierra Colombiana Restaurant,19140,402,4.0
37 S 19th St,vpNJJNVgVmf2u1lfdFh81w,"Breakfast & Brunch, Restaurants, American (New)",Philadelphia,39.952304,-75.1715399,Matyson,19103,402,4.0
150 N 10th St,t6g6Lj8WzjIXXucCl9jdTQ,"Salad, Coffee & Tea, Juice Bars & Smoothies, Desserts, Ice Cream & Frozen Yogurt, Food, Creperies, Gluten-Free, Restaurants, Japanese",Philadelphia,39.9550806,-75.1561748,T-Swirl Crêpe,19107,401,4.0
1033 N 2nd St,jHZS9GIhW7s9r4w5w-0A0Q,"Beer, Wine & Spirits, Food, Desserts, Breakfast & Brunch, Diners, Restaurants",Philadelphia,39.9675198,-75.13981,Darling's Diner,19123,401,2.5
45 N 13th St,Ldch7Nc5gaZrhcIRd7mcjw,"Japanese, Sushi Bars, Restaurants",Philadelphia,39.9535852,-75.1609794,Kabuki Sushi,19107,400,4.0
1026 Race St,Yu401DtSmkXpJhgXnQcFrg,"Restaurants, Venues & Event Spaces, Chinese, Dim Sum, Event Planning & Services",Philadelphia,39.95544,-75.156989,Joy Tsin Lau Chinese Restaurant,19107,398,3.0
1511 Locust St,d28lZlSps97FHhXZazJ8zA,"Restaurants, American (Traditional), Bars, Burgers, Nightlife",Philadelphia,39.9486272,-75.1666356,Misconduct Tavern,19102,396,3.5
1046 Tasker St,tcvNBC65Gsa4cH1_gyucpQ,"Scandinavian, Restaurants, American (New)",Philadelphia,39.92966,-75.163003,Noord,19148,396,4.5
1410 Mt Vernon St,_s_51Vmq1LVQnGFSa-KfUw,"Breakfast & Brunch, Italian, Bars, Nightlife, American (New), Gastropubs, Restaurants",Philadelphia,39.9644843888,-75.1618600599,Alla Spina,19130,395,3.5
777 S Broad St,H3EK1Q8tqRGqPBps05Uahw,"Asian Fusion, Indian, Modern European, Restaurants, Vegetarian",Philadelphia,39.941204,-75.165127,Tashan,19147,395,4.0
3333 Market St,pW5DXTpKnw3y0fopipbJVg,"American (New), Sports Bars, Bars, Restaurants, Nightlife",Philadelphia,39.9559586568,-75.1906506718,Landmark Americana Tap & Grill - University City,19104,394,3.0
5826 Henry Ave,PgUoeGam08nCaLWJwrmrWQ,"Cheesesteaks, Restaurants, Sandwiches, Steakhouses",Philadelphia,40.0291319,-75.2063122,Chubbys Steaks,19128,394,4.0
812 N 2nd St,9e_rrzyTolsH1RUXHOvsMA,"Food, Ethnic Food, Restaurants, Thai, Asian Fusion, Specialty Food, Vegetarian",Philadelphia,39.9633982,-75.1411529,Circles Contemporary Thai,19123,394,3.5
8201 Germantown Ave,oqy15jhe1lOXttEvd4Srog,"Mexican, Bars, Food, Nightlife, Restaurants",Philadelphia,40.0735965366,-75.2026142093,El Poquito,19118,394,3.0
736 S 9th St,cFSyJluKa2SHtgMMvlx6SQ,"Restaurants, Pizza, Sandwiches",Philadelphia,39.9406517812,-75.1576136221,Angelo's Pizzeria,19147,393,4.5
4630 Baltimore Ave,XIKYdKWq72zUYsq8NBxcCQ,"Mediterranean, Vegetarian, American (New), Restaurants",Philadelphia,39.9485474,-75.2163663,Aksum Cafe,19143,393,4.0
705 N 2nd St,PYUI1OJVksGUbCrteU68bw,"Bars, American (Traditional), Breakfast & Brunch, Music Venues, Arts & Entertainment, Nightlife, Restaurants",Philadelphia,39.96207,-75.14104,Bourbon & Branch,19123,392,4.0
1 W Girard Ave,KkdLjGfVsfGESNkE0ktURg,"Restaurants, Ice Cream & Frozen Yogurt, Cheesesteaks, Food, Sandwiches, American (Traditional)",Philadelphia,39.969035,-75.134557,Joe's Steaks + Soda Shop,19125,392,4.0
1501 S 8th St,AnhgZCyjhzU8JVxl2ftJKQ,"Delis, Restaurants, Food, Bakeries, Sandwiches, Cheesesteaks",Philadelphia,39.9302586,-75.1579964,Cosmi's Deli,19147,391,4.0
2100 Fairmount Ave,gwxNttwUgmOn3vsHYe0pDQ,"Restaurants, Coffee & Tea, Gluten-Free, Food, Bagels",Philadelphia,39.967128,-75.172378,OCF Coffee House,19130,390,4.0
1200 Market St,oJxsRgj8Un9VAPXpaDuufA,"Restaurants, Gastropubs, American (New)",Philadelphia,39.9517241479,-75.1601829009,Bank & Bourbon,19107,390,3.5
1927 E Passyunk Ave,0-7N3z_cb3Z1xMGDrbez6w,"Italian, Restaurants",Philadelphia,39.926032,-75.1678,Le Virtu,19148,389,4.0
1720 Fairmount Ave,Mwc3n5Psw9wRaQ22vZWDYQ,"Food, Restaurants, Breweries, Comfort Food, Brewpubs, Breakfast & Brunch, Gastropubs",Philadelphia,39.9671254924,-75.1661240918,Bar Hygge,19130,387,4.5
1 S Broad St,S0dQ8Vks0IR-PZPLoBHKRA,"Seafood, Restaurants, Southern, Steakhouses, American (Traditional)",Philadelphia,39.951353,-75.1634754,McCormick & Schmick's Seafood & Steaks,19107,387,2.5
1017 S 9th St,nsH0hQ7xB5LS2_Ba3mqHTQ,"Restaurants, Sandwiches, Italian",Philadelphia,39.937135,-75.158062,Paesano's Philly Style,19147,387,4.5
60 S 38th St,uvj_tGQrGDSVXjNU4pHjCA,"Restaurants, Food, Indian, Ethnic Food, Specialty Food",Philadelphia,39.9556956061,-75.1985801108,Sitar India,19104,387,4.0
1415 W Porter St,dYinIkKBspHV5hSaukklFg,"Restaurants, Italian",Philadelphia,39.919628,-75.1713762,L'Angolo Ristorante,19145,386,4.5
2016 Penrose Ave,nF5QByCz21MY0KLtSoB5KA,"Comfort Food, Diners, Breakfast & Brunch, Restaurants",Philadelphia,39.9122173,-75.1827641,Penrose Diner,19145,386,4.0
121 S 17th St,oBhJuukGRqPVvYBfTkhuZA,"American (New), Breakfast & Brunch, Bars, Nightlife, Restaurants",Philadelphia,39.9508011,-75.1686108,Square 1682,19103,385,3.5
8400 Germantown Ave,ohWH383r60AREWh-aphpSw,"American (New), Breweries, Desserts, American (Traditional), Restaurants, Food",Philadelphia,40.0750694,-75.2055144,Iron Hill Brewery & Restaurant,19118,384,3.5
1100 Chestnut St,V_jy9Aemc3kjznqhbsu_Dg,"Coffee & Tea, Food, American (New), Arts & Entertainment, Nightlife, Music Venues, Restaurants, Bars",Philadelphia,39.950125,-75.1587931,MilkBoy,19107,383,3.5
1754 S Hicks St,l8VedGQFMLtTz2zRmpTlxA,"Indonesian, Singaporean, Restaurants, Asian Fusion, Specialty Food, Food, Ethnic Food",Philadelphia,39.9284359,-75.1712655,Hardena/Waroeng Surabaya Restaurant,19145,383,4.5
1700 E Passyunk Ave,mBgaPljP3OYkl_vGKTyFNw,"Bars, Nightlife, Restaurants, Pizza, Beer Bar, Italian",Philadelphia,39.9286739096,-75.1650932751,LaScala's Birra,19148,383,4.0
1113 Market St,JVZ_c3k01uAIas5B61iISg,"Restaurants, Nightlife, Sandwiches, Music Venues, Arts & Entertainment, American (New), Cafes, Burgers, American (Traditional)",Philadelphia,39.9520316095,-75.1596930614,Hard Rock Cafe,19107,382,3.0
15 S 3rd St,j6usntbtSzFyuwx4n2mn1g,"Restaurants, Mexican",Philadelphia,39.9499940204,-75.1454153298,Las Bugambilias,19106,381,4.0
1430 Walnut St,V8we7-uCa-SouadZmZ9Ieg,"Restaurants, Salad, American (Traditional), American (New), Seafood, Food, Desserts",Philadelphia,39.9491039,-75.1658813,The Cheesecake Factory,19102,381,3.0
140 S 20th St,WgyhlYg3fnSgco4qLa20cg,"Ethiopian, Imported Food, Restaurants, Coffee & Tea, American (Traditional), Ethnic Food, Specialty Food, Food",Philadelphia,39.9506628,-75.1739332,Almaz Cafe,19103,381,4.0
7136 Germantown Ave,ulfMNXHzGVleRf2U5KwiQQ,"Pizza, Food, Breweries, American (New), Restaurants",Philadelphia,40.059176,-75.1904467,Earth Bread + Brewery,19119,380,4.0
1523 S 8th St,hX_8ZUmIqWFWzjdiPrf23w,"Bakeries, Restaurants, Food, Desserts",Philadelphia,39.9297933,-75.1580422,Termini Bros Bakery,19147,380,4.5
101 N 11th St,ZNWox30LIv7hV5k5YP8tCQ,"Gastropubs, Food, American (New), Restaurants, Nightlife, Tapas Bars, Beer, Wine & Spirits, Bars, Sports Bars",Philadelphia,39.9540709,-75.1576818,Bar-Ly Chinatown,19107,380,4.0
6030 Torresdale Ave,kkcQYuF3w5iHnHMf0EnRhQ,"Sandwiches, Restaurants, Cheesesteaks",Philadelphia,40.0185131,-75.0581372,Joe's Steaks + Soda Shop,19135,380,4.5
1701 Spruce St,DhZVpgeBKxoLd91MiwTxpg,"Italian, Food, Restaurants",Philadelphia,39.9477642,-75.1696977,La Fontana Della Citta,19103,379,3.0
12th St & Arch St,Og1HekJMHKqsvtWaUp9V8g,"Food, Restaurants, Desserts, Local Flavor",Philadelphia,39.953807711,-75.1586299373,Flying Monkey Bakery,19176,378,3.5
59 N 11th St,fcpHrRopilvsBwUajFB5rw,"Restaurants, Chinese, Dim Sum",Philadelphia,39.9532889,-75.1578543,Dim Sum Garden,19107,377,4.0
1516 Tasker St,a62d7e_xXeljJcOUHkJjkg,"Vegetarian, Asian Fusion, Thai, Restaurants",Philadelphia,39.9306471,-75.1707286,Circles Contemporary Asian,19145,377,3.5
2028 Chestnut St,vuE1iseFrgNPumUEfHIZZQ,"French, Restaurants, Thai, Asian Fusion",Philadelphia,39.9521034288,-75.174737909,JJ Thai Cuisine,19103,376,4.5
440 S Broad St,uIZwBkvWicqyWraXvYOipw,"Restaurants, American (New)",Philadelphia,39.9455017733,-75.1653677598,Sbraga,19146,375,4.0
2604 E Somerset St,gQCKrqkalAc--4cuW_C_Ow,"Pizza, Restaurants",Philadelphia,39.980483,-75.11303,Tacconelli's Pizzeria,19134,372,4.0
3931 Walnut St,bgxDswHIdFP0Go0pNfyAAw,"Specialty Food, Food, Sandwiches, Middle Eastern, Vegetarian, Ethnic Food, Restaurants, Mediterranean, Greek, Salad",Philadelphia,39.954349,-75.2021586,Hummus Grill,19104,372,4.0
1700 S 6th St,7yPzOek7Af2dKWGYKpcHWA,"Restaurants, Cambodian",Philadelphia,39.9274110049,-75.1556555182,Khmer Kitchen,19148,372,4.5
147 N 3rd St,i6jA8vSHrP9LiUPHlqPVwA,"Food, Mediterranean, Coffee & Tea, Restaurants",Philadelphia,39.9535194938,-75.1448114998,Cafe Olé,19106,371,4.0
941 Spring Garden St,8yZzf0gdWpSmY6ziyq7hKQ,"Vegetarian, Food, Venezuelan, Cafes, Latin American, Desserts, Restaurants",Philadelphia,39.9619035,-75.1543329,Sazon Restaurant & Cafe,19123,370,4.0
1532 Snyder Ave,qaDImxPguQz0jToNYvB1Eg,"Mexican, Restaurants, Vegetarian, Coffee & Tea, Juice Bars & Smoothies, Cafes, Desserts, Bakeries, Food, Breakfast & Brunch",Philadelphia,39.924584,-75.172676,Café y Chocolate,19145,369,4.5
208 W Washington Square,EreYgrQPuR7Sk_FKeZZg9g,"American (Traditional), Food, Bakeries, Specialty Food, Restaurants, Bars, Ethnic Food, Cafes, Beer Bar, Coffee & Tea, American (New), Nightlife",Philadelphia,39.9472825,-75.1536278,Talula's Daily,19106,368,4.5
1743 South St,sL6fC0P4C-gyL4E5gacUeQ,"Sandwiches, Restaurants, Pizza, Italian, Salad",Philadelphia,39.944571,-75.171679,Lazaro's Pizzeria & Grill,19146,368,4.0
7152 Ogontz Ave,32It9NN_lVismU9tcuLB0A,"Caterers, Arts & Entertainment, Nightlife, Desserts, Jazz & Blues, Event Planning & Services, Food, Seafood, Southern, Soul Food, Restaurants",Philadelphia,40.0634207,-75.1531244,Relish,19138,368,3.5
122 S 12th St,HrIEc9gVWWnjqn9OiglrVQ,"Fast Food, Restaurants, Delis, Sandwiches, Event Planning & Services, Cheesesteaks, American (New), Caterers",Philadelphia,39.9494836,-75.1606662,Jakes Sandwich Board - 12th St,19107,368,4.0
615 Chestnut St,RZtGWDLCAtuipwaZ-UfjmQ,"Pizza, Restaurants, Italian, Salad",Philadelphia,39.949529,-75.152139,LaScala's,19106,367,3.5
725 Walnut St,wocwfwSFrNfYJRyfYSi1Cw,"Restaurants, Bagels, Coffee & Tea, Sandwiches, Food, Soup, Salad",Philadelphia,39.9481128,-75.1536477,Knead Bagels,19106,367,4.5
929 Walnut St,elSnD7Vuxnlg5_9gTqBqmA,"Restaurants, Pizza, Italian, Gluten-Free",Philadelphia,39.9485666341,-75.157169,Barra Rossa Ristorante,19107,366,3.5
2206 Christopher Columbus Blvd,Rzx2E5XgTeGU7FEbUZ-bGg,"Kitchen & Bath, Shopping, Restaurants, Furniture Stores, Nurseries & Gardening, Home Decor, Appliances, Home & Garden",Philadelphia,39.9171275,-75.1418318,IKEA,19148,365,3.0
1009 S 8th St,tBQcVd9c0EHKAXLZn_v54g,"Restaurants, French, Specialty Food, Food",Philadelphia,39.9365031566,-75.1566941459,Bibou,19147,364,4.5
430 Walnut St,wuH4TPUo8oJo4E59xZKsNg,"Pizza, Vegetarian, Restaurants, Vegan",Philadelphia,39.9492067124,-75.1659201062,&pizza - Walnut,19102,364,4.5
3801 Chestnut St,bdteJqgoj0OaALhj9RFtmw,"Italian, Korean, Restaurants",Philadelphia,39.9556166133,-75.1989265346,Koreana,19104,363,3.5
7619 Germantown Ave,kK1re49IK3jmCYTL6B6_lw,"Restaurants, Delis, Breakfast & Brunch, American (Traditional), Diners, Bagels, Food",Philadelphia,40.065613,-75.195784,Trolley Car Diner,19119,363,3.5
51 N 12th St,pWzrmh1oiU9ngWXGHKnnwQ,"Restaurants, American (New), Breakfast & Brunch, Diners",Philadelphia,39.9530183899,-75.1594000959,Down Home Diner,19107,362,3.0
1115 Walnut St,XsfuqDqw9eOaQ_2FCv5MuQ,"Halal, Restaurants, Indian, Fast Food, Nightlife",Philadelphia,39.9491761,-75.159714,Masala Kitchen Kati Rolls and Platters,19107,361,4.0
1100 Pattison Ave,s-Ff-8M5-AR-5jl59lCj1w,"Restaurants, Nightlife, American (New), Food, Sports Bars, Bars, Breweries, Beer, Wine & Spirits",Philadelphia,39.9044484999,-75.1696318388,Xfinity Live! Philadelphia,19148,361,3.0
1800 Federal St,kfpwO_cdVQdTh2_oMDZ51Q,"Restaurants, Bars, Nightlife, American (New)",Philadelphia,39.936536,-75.17375,American Sardine Bar,19146,359,4.0
1536 E Passyunk Ave,HngRiL6Z3DFTDnNsXZ0TQw,"Nightlife, Tapas/Small Plates, American (New), Bars, Restaurants",Philadelphia,39.930249,-75.163265,Stateside,19147,358,3.5
1500 South St,oXr3EhnQCqA8SNWIZ3H4Fg,"Breakfast & Brunch, Cafes, Coffee & Tea, Food, Restaurants",Philadelphia,39.9437411,-75.1673474,Little Spoon Cafe,19146,358,4.0
230 Market St,U2y7fsqDgxAXskoJNVxbwg,"Sandwiches, Coffee & Tea, Restaurants, Ice Cream & Frozen Yogurt, Food, Desserts",Philadelphia,39.9499567,-75.1449039,Happily Ever After,19106,358,4.0
1508 South St,K0JZOvCUgYtbPjcDzys_kw,"Restaurants, Nightlife, American (New), Bars",Philadelphia,39.9437655,-75.1676029,The Cambridge,19146,358,3.5
2005 Walnut St,xWfm4AwLZr-B97fYVsIgCA,"Nightlife, Gastropubs, French, Beer Bar, Pubs, Bars, Restaurants, American (New), Wine Bars, Cocktail Bars",Philadelphia,39.9506754,-75.1740099,Tria Taproom,19103,357,4.5
116 S 18th St,Cjwb7VQGP0u2eWYj1wnO3g,"Lounges, Restaurants, Greek, Nightlife, Bars, Japanese, Mediterranean",Philadelphia,39.9511992,-75.1706583,Vango Lounge & Skybar,19103,357,2.0
816 S 47th St,SPEXSaryxJmVpy8QoRz7Tg,"Vietnamese, Restaurants",Philadelphia,39.9481782,-75.2168865,Vietnam Cafe,19143,357,4.0
51 N 12th St,SHYPQbYqbfK4CwTDjtBH7Q,"Food, Desserts, Bakeries, Restaurants",Philadelphia,39.9530717477,-75.1594193432,The Famous 4th Street Cookie Company,19107,356,4.0
110 S 19th St,1vPSY4EA-fTRIZYz1Ruzow,"Bakeries, American (Traditional), Mediterranean, Food, Restaurants, Cafes",Philadelphia,39.951593,-75.172171,K'Far Cafe,19103,356,4.5
901 S 8th St,K6hAv8V2cTuXQtU3VHAD6w,"Mexican, Restaurants",Philadelphia,39.9384274,-75.1561557,Tres Jalapenos,19147,354,3.5
2491 Grant Ave,UdcLHHBRIxtelgbKBnhitA,"Burgers, Juice Bars & Smoothies, Food, Restaurants, Ice Cream & Frozen Yogurt, Breakfast & Brunch, Desserts, Diners",Philadelphia,40.0794684018,-75.0253902955,Nifty Fifty's,19114,352,3.5
2031 Sansom St,PhLYLCjM_dS_seS_fMBVeg,"Nightlife, Restaurants, American (Traditional), Comedy Clubs",Philadelphia,39.9515214293,-75.1748099467,Helium Comedy Club,19103,352,3.5
555 S Columbus Blvd,ckF4SrqKfSm8ndr88on1dA,"American (Traditional), Restaurants, Event Planning & Services, Breakfast & Brunch, Seafood, Venues & Event Spaces, Steakhouses",Philadelphia,39.9411270506,-75.1404787123,Chart House,19147,352,2.5
114 S 13th St,tf2nzjkP8XGIeU-lg767XA,"Mediterranean, Restaurants, Wine Bars, Bars, Nightlife, Italian",Philadelphia,39.9498038,-75.1620581,Tredici Enoteca,19107,352,4.5
48 S 2nd St,L0zMk5SXnqR0JLEe0XY20g,"Nightlife, Sandwiches, American (New), Restaurants, Bars, Local Flavor",Philadelphia,39.948832,-75.144063,Sassafras Bar,19106,352,4.5
6600 N 5th St,QWqKTWQ2OiDgo3dzNkpung,"Korean, Restaurants",Philadelphia,40.0520643,-75.1273939,Jong Ka Jib,19126,351,4.5
940 S 9th St,VwZ5NDbIu3elGQI6MzcXBA,"Food, Beer, Wine & Spirits, Nightlife, Restaurants, Bars, Cocktail Bars, Mexican",Philadelphia,39.9377652566,-75.1583243076,Blue Corn,19147,350,4.5
1537 S 11th St,T_6e0SgNuKotySgVS8O1UQ,"American (New), Bars, Seafood, Restaurants, Nightlife",Philadelphia,39.9298755856,-75.162953,Fond,19147,350,4.5
3025 Walnut St,-5Rah4ZvWsDu4oilUZxhtw,"Nightlife, Arts & Entertainment, Restaurants, Music Venues, American (New), Bars, Jazz & Blues",Philadelphia,39.9520744759,-75.1851766256,World Cafe Live,19104,350,4.0
2301 Fairmount Ave,DRr5xdfHtqgWfhmdTU1B8Q,"Breakfast & Brunch, Italian, Restaurants, American (New)",Philadelphia,39.9675638,-75.1754915,London Grill,19130,350,3.0
789 Franklin Mills Cir,l8gAoQqqVfphPe9jmIJZ3g,"Korean, Barbeque, Hot Pot, Restaurants",Philadelphia,40.0924685,-74.9629393,K-POT Korean BBQ & Hot Pot,19154,349,4.5
625-27 S 6th St,cwn_MBPFUJtme68WURSgKA,"Food, Breweries, Nightlife, Pubs, Sandwiches, Comfort Food, Bars, Beer Bar, Restaurants, Breakfast & Brunch, American (New), Sports Bars, Gastropubs",Philadelphia,39.9412093,-75.1522391,Bainbridge Street Barrel House,19147,347,3.0
19 W Girard Ave,mUdjeVjdsiOQMBK41x0Bow,"Mexican, Nightlife, Restaurants, Cocktail Bars, Sports Bars, Bars",Philadelphia,39.9688395,-75.1351413,Sancho Pistola's,19125,347,4.0
269 S 20th St,zujdPV3HT-Y-CKE1GgkMHQ,"Coffee & Tea, Bakeries, Food, Soup, Breakfast & Brunch, Restaurants",Philadelphia,39.9484101,-75.174133,The Bakeshop on 20th,19103,346,4.5
3400 Lancaster Ave,ZMejgg0By-DI2wyQWezBbQ,"Nightlife, Japanese, Restaurants, Bars, Sushi Bars, Ramen",Philadelphia,39.9572977379,-75.1920437233,Ramen Bar,19104,343,3.5
1126 Walnut St,q1VOESxR99qJvpubnNxyJQ,"French, Coffee & Tea, Cafes, Food, Restaurants",Philadelphia,39.9487531332,-75.1600949582,Caribou Cafe,19107,341,3.0
247 S 17th St,sdWuLh-auc0nC2Jy6_26AQ,"Bars, Pubs, Irish Pub, Nightlife, Sports Bars, Restaurants, American (New)",Philadelphia,39.9484223,-75.1692901,The Black Sheep Pub & Restaurant,19103,339,3.5
"1516 Sansom St, 2nd Floor",bfiO0n663Ej36svzuRuVtA,"Nightlife, Breweries, Pubs, Bars, Food, American (New), Restaurants",Philadelphia,39.950221,-75.166583,Nodding Head Brewery & Restaurant,19102,339,3.5
1136 Arch St,D2OcZHMkznF5bbelwZ7TPw,"American (New), Breakfast & Brunch, Gastropubs, Restaurants",Philadelphia,39.9531200778,-75.1589835418,Molly Malloy's,19107,339,4.0
614 S 7th St,L_Rwy6oSAnMUY3NCDspxmA,"Nightlife, Wine Bars, Breakfast & Brunch, Bars, Restaurants, Cocktail Bars, Brasseries, French",Philadelphia,39.941969,-75.154207,The Good King Tavern,19147,338,4.0
4343 Main St,swcfmflnWlhnbvPOHvPq_A,"Restaurants, Thai, Noodles",Philadelphia,40.025630123,-75.2234600857,Chabaa Thai Bistro,19127,338,4.0
1515 S 4th St,9A5Gw0At6so0x-vWM0_JZw,"Coffee & Tea, Vegetarian, Food, Restaurants, Vegan",Philadelphia,39.929015,-75.1517365,Grindcore House,19147,338,4.5
538 N 4th St,Ea4G-2lAbodTM7FBaSO-tQ,"Cheesesteaks, Burgers, Restaurants, Pizza, Caterers, Food Delivery Services, Food, Event Planning & Services",Philadelphia,39.9615077,-75.1450865,Del Rossi's Cheesesteak,19123,338,3.5
426 W Girard Ave,I5KZm-NnxYeEQsmp6nK5_w,"Food, Tacos, Mexican, Latin American, Restaurants, Spanish",Philadelphia,39.9698623,-75.1439919,Las Cazuelas Restaurant BYOB,19123,338,4.0
4460 Main St,KfIPQSLSj_rJ9zbsdO7wFQ,"Comfort Food, American (Traditional), Restaurants, Sandwiches, Breakfast & Brunch",Philadelphia,40.0267886888,-75.2267333767,Greg's Kitchen,19127,337,4.0
"1000 Frankford Ave, Ste 1",ZQc6EvnfQXtIK-8w-d0N5Q,"American (New), Cocktail Bars, Bartenders, Nightlife, Bars, Event Planning & Services, Restaurants",Philadelphia,39.96486,-75.13463,Mad Rex,19125,337,3.5
4000 Spruce St,C_EtrXTygRX5RTUOKtO6Dg,"Nightlife, Bars, Restaurants, American (Traditional)",Philadelphia,39.9515586,-75.2032578,Copabanana,19104,334,3.0
2 Rector St,5hvO_zH7B1n2humawoPHrw,"Restaurants, Bars, American (New), Cajun/Creole, Nightlife",Philadelphia,40.0242614,-75.2222218,Bourbon Blue,19127,334,3.5
1527 S 4th St,hdtnpHXn-iIFTzPLvoOK0Q,"Salad, Breakfast & Brunch, Sandwiches, Restaurants",Philadelphia,39.9288513959,-75.1521847471,The Dutch,19147,334,4.0
123 N 10th St,POuaebsAeCyNx-8qZ3O7XQ,"Taiwanese, Chinese, Shanghainese, Restaurants",Philadelphia,39.9541205693,-75.1560343422,Shang Hai 1,19107,332,4.0
4510 City Ave,vrQCClTDrPSbIHO-ub8qFg,"Latin American, Peruvian, Chicken Shop, Restaurants, Sandwiches",Philadelphia,40.0030483,-75.2219283,Sardi's Pollo A La Brasa,19131,332,4.0
261 S 17th St,9_B5sCqKBOKDAmYpByiFFg,"Breakfast & Brunch, Italian, Food, Restaurants, Desserts",Philadelphia,39.9480133,-75.1693585,Branzino Italian Ristorante,19103,331,3.5
775 S Front St,LzVvcVm48zYIcQnwLKt1oA,"Bars, Restaurants, Cajun/Creole, American (Traditional), Breakfast & Brunch, Barbeque, Nightlife",Philadelphia,39.9378923,-75.144601,Catahoula,19147,330,4.0
1111 Walnut St,fneeyCOYV5-oVeQP0TACog,"American (Traditional), Restaurants, Nightlife, American (New), Bars, Hot Dogs",Philadelphia,39.948898,-75.159717,Destination Dogs,19107,329,4.5
1634 South St,9-tZDrMjJYBbpCJoU3WXAQ,"Indian, Restaurants",Philadelphia,39.9440532,-75.1699635,Indian Restaurant,19146,328,3.5
1524 Sansom St,NYj8uB9-u0SmRMNDNktb1g,"Nightlife, Restaurants, Bars, Dive Bars",Philadelphia,39.9502531,-75.1668064,Oscar's Tavern,19102,328,4.0
4040 Locust St,lS42krxXMm-HIk7dntRsKQ,"Asian Fusion, Thai, Soup, Restaurants, French, Salad",Philadelphia,39.9529055,-75.204785,Pattaya,19104,327,3.5
135 N 9th St,muCelHtTlX5PrJd8JKkf_w,"Food, Health Markets, Restaurants, Specialty Food, Vegetarian, Kosher, Chinese, Ukrainian, Vegan",Philadelphia,39.95445,-75.1543215,New Harmony Vegetarian Restaurant,19107,327,4.0
1617 E Passyunk Ave,fEqiXG_B-fn__w0aeF3nBQ,"French, American (New), Restaurants",Philadelphia,39.9294148,-75.1637155,Laurel,19148,326,4.5
8500 Essington Ave,9Qe5ib0bCgRITjYn-iA-Bg,"Nightlife, Food, Beer, Wine & Spirits, Restaurants, Breakfast & Brunch, Bars, American (New), Seafood, Gluten-Free",Philadelphia,39.876009,-75.242965,Legal Sea Foods,19153,326,4.0
202 S 13th St,wPi7p5fZyGTOjDU28IlTqA,"Restaurants, Bars, American (Traditional), Gay Bars, Dance Clubs, Nightlife, Pubs",Philadelphia,39.949064,-75.16241,Woody's,19107,325,3.0
220 S 17th St,0mijbNf-7wiKJ9xto1pAyg,"Breakfast & Brunch, Restaurants, Mediterranean",Philadelphia,39.9493776356,-75.169540979,Spice Finch,19103,325,4.5
219 S 17th St,5YkucjpFYEhg4gsWU4B1hQ,"Restaurants, Diners, Breakfast & Brunch, Sandwiches",Philadelphia,39.949326,-75.169019,Little Pete's Restaurant,19103,324,3.5
1511 South St,LtLbT776NOAjva1ttA2h3w,"Restaurants, Pizza, Vegetarian, Salad, Italian",Philadelphia,39.944064,-75.1676029,The QUICK FIXX,19146,324,4.0
14 N Front St,0bvtIbpsqBJZpRKSPwIfNw,"Hotels & Travel, Bars, Food, Wine Bars, Beer, Wine & Spirits, Event Planning & Services, Nightlife, Hotels, Gluten-Free, Restaurants, Italian",Philadelphia,39.950201,-75.142285,Panorama,19106,324,4.0
1150 Market St,KrKQChZ1hwHHVaUK9Zc-Ag,"Food, Breweries, Restaurants, American (Traditional), Brewpubs",Philadelphia,39.9515764639,-75.1596684381,Iron Hill Brewery & Restaurant,19107,324,4.0
627 S 3rd St,1yuSWypzGewvhNZSwUlvPw,"American (New), Restaurants, Bars, Breakfast & Brunch, Nightlife",Philadelphia,39.9406135,-75.147572,Ela,19147,323,4.0
1801 Lombard St,68ThEdiK0eWCEgGEmV9Tng,"Breakfast & Brunch, American (Traditional), Korean, Restaurants, Gastropubs, Nightlife, Bars, Cocktail Bars",Philadelphia,39.9455687,-75.1717901,Southgate,19146,323,4.0
1334 Walnut St,T8NWs6flR26edfhhwJNhNA,"Mediterranean, Middle Eastern, Restaurants",Philadelphia,39.9491798,-75.1635651,Sahara Grill,19107,322,4.0
3428 Sansom St,41LEg4ZgFDVnZfToxGXiGA,"Coffee & Tea, Comfort Food, Donuts, Food, Restaurants",Philadelphia,39.9535536,-75.1931768,Federal Donuts,19104,322,4.0
4201 Chestnut St,9OhPfV0C3Q49l5tSre2MuQ,"Food, Ethnic Food, Indian, Middle Eastern, Pakistani, Halal, Specialty Food, Barbeque, Restaurants",Philadelphia,39.9564795,-75.2065288,Kabobeesh,19104,322,3.5
1019 S 11th St,Iyopb5uFIBT_HOgp8ipSfw,"Vietnamese, Restaurants",Philadelphia,39.9376867,-75.1610435,Le Viet Restaurant,19147,322,4.0
104 South 18th St,XQWZQjC73fCTRGWnD18-Eg,"American (Traditional), Restaurants, American (New)",Philadelphia,39.9514489,-75.1705213,Mac Mart,19103,321,4.0
701 N Seventh St,-Or44IdY51Ukd618kikmtA,"Restaurants, Donuts, Chicken Wings, Food, Coffee & Tea",Philadelphia,39.9641791314,-75.1494241306,Federal Donuts,19123,321,4.0
2120 Fairmount Ave,-v8dtO9BZmKidXLMohiQhQ,"Bars, Nightlife, Restaurants, Barbeque, Whiskey Bars, American (New), Sports Bars",Philadelphia,39.9670245,-75.1729544,Urban Saloon,19130,320,3.0
1000 Arch St,688sqo63oc2y535vI2UbhQ,"Restaurants, Vietnamese",Philadelphia,39.9533132,-75.1565235,Pho Cali Vietnamese Restaurant,19107,319,3.5
431 N 62nd St,B-SiesU4hxIiL7rl7vzayA,"Cheesesteaks, Steakhouses, Salad, Burgers, Sandwiches, Restaurants",Philadelphia,39.9692157,-75.2430863,Jim's Steaks,19151,319,4.0
1138 Pine St,zfn7V7FVH5_J5A9dInfbnA,"Breakfast & Brunch, Restaurants, Cocktail Bars, Seafood, Salad, Bars, Nightlife",Philadelphia,39.94499,-75.161245,Pinefish,19107,318,3.5
1310 Frankford Ave,ILvJAuSP0sYWJKAQ-Goh4Q,"Event Planning & Services, Butcher, American (Traditional), American (New), Cooking Classes, Venues & Event Spaces, Arts & Crafts, Shopping, Restaurants, Food",Philadelphia,39.9705028,-75.1346993,Kensington Quarters,19125,318,4.0
117 Chestnut St,0R2yKDNMUztQwgo8pG4z-Q,"Restaurants, Breweries, Music Venues, Nightlife, American (New), Food, Arts & Entertainment",Philadelphia,39.948506,-75.143475,Triumph Brewing Company,19106,318,3.5
1038 Race St,cv-SmPhbpwQCtlI2Q7KJIQ,"Chinese, Japanese, Dim Sum, Sushi Bars, Restaurants, Szechuan",Philadelphia,39.9554771,-75.1572987,Sakura Mandarin,19107,318,3.5
220 S 16th St,-UJ7ZTb3zfmqZogmy3fnGg,"Wine Bars, Venues & Event Spaces, Event Planning & Services, Restaurants, Cocktail Bars, Italian, Bars, Nightlife",Philadelphia,39.949084,-75.167867,Bellini,19102,318,3.0
1528 Sansom St,HS5CfzQ_gOJHgqwtv9rvNQ,"American (New), Restaurants, Bars, Nightlife",Philadelphia,39.9502786,-75.1669645,Ladder 15,19102,317,3.0
4550 Mitchell St,i6DlLLxZ2iwQRxhUDx3TTg,"Mexican, Vegan, Restaurants",Philadelphia,40.0342316,-75.2191448,The Adobe Cafe,19128,317,3.5
2048 Sansom St,3lBooCffgkW7tVSG5kILBA,"Restaurants, Italian",Philadelphia,39.951348,-75.1751139,Porcini,19103,317,3.5
222 Market St,pVHbXwsqLxNzAx9rdwy2EA,"American (Traditional), Steakhouses, Nightlife, Bars, Seafood, Restaurants, Lounges",Philadelphia,39.9497397,-75.1445806,Marmont Steakhouse & Bar,19106,316,3.5
1424 South St,qcguEeAMP0XwFLYqhwX2hg,"Gluten-Free, Food, Bakeries, Restaurants, Vegan",Philadelphia,39.94362,-75.1664573,Sweet Freedom Bakery,19146,316,3.5
208 Race St,S9IFCU4FKCqEriV1Rr2ZcA,"Restaurants, American (New), Cafes, Nightlife, American (Traditional), Bars",Philadelphia,39.9537127,-75.1434447561,Race Street Cafe,19106,315,4.0
1127 Pine St,CuyQt_cUFS1i738GXTNciw,"Greek, Mediterranean, Restaurants",Philadelphia,39.9451062,-75.1606111,Effie's Restaurant,19107,315,3.5
202 E Girard Ave,AlxnbBd2JNkozNvI0OvRLQ,"Italian, Dive Bars, Sports Bars, Nightlife, Irish Pub, Restaurants, Bars, Pubs",Philadelphia,39.9689397,-75.1334333,Murph's Bar,19125,315,4.0
1006 Arch St,3yW8-dUi1wwCEf0URxUA7A,"Restaurants, Taiwanese, Bubble Tea, Juice Bars & Smoothies, Food, Coffee & Tea",Philadelphia,39.95349,-75.156748,Kung Fu Tea,19107,314,3.5
2146 E Susquehanna Ave,dpiaAGgEMm9Lf8dbx0yEJQ,"Food, Sandwiches, American (New), Cafes, Soup, Restaurants",Philadelphia,39.9798199,-75.129822,Soup Kitchen Cafe,19125,314,4.0
214 S 40th St,LnZvGYbqozanOSevcftnrw,"Sandwiches, Food, Burgers, Restaurants, Vegan, Desserts",Philadelphia,39.953549,-75.202991,HipCityVeg - University City,19104,314,4.0
3200 Chestnut St,YNzyPt4RdhDGUDlwxFtTQQ,"Bars, Tapas/Small Plates, Nightlife, Italian, Restaurants, Wine Bars, Pizza",Philadelphia,39.9536479551,-75.1891877265,Zavino,19104,314,4.0
1615 Chancellor St,0-JRAY0LpBazDuA9761U5w,"Salad, Italian, Pizza, Restaurants, Cafes",Philadelphia,39.94941083,-75.1686977423,Pizzeria Vetri,19103,313,4.0
2370 E Norris St,rOspf7E1Y8YAbVXTZyl-tQ,"Southern, Bars, Cocktail Bars, Restaurants, Nightlife, Barbeque, Sandwiches, Beer, Wine & Spirits, American (Traditional), Food, American (New), Gastropubs",Philadelphia,39.9768423,-75.1277643,Cedar Point Bar and Kitchen,19125,313,4.0
4800 Baltimore Ave,wopwoiKIllIzcggK7HkTmw,"American (Traditional), American (New), Restaurants, Food, Breakfast & Brunch, Coffee & Tea",Philadelphia,39.9481839,-75.2196691,The Gold Standard Cafe,19143,312,3.0
4243 Main St,hUX1yAimviBIhb21D_KtcQ,"Mexican, Restaurants, Bars, Tex-Mex, Nightlife",Philadelphia,40.0245627,-75.2209958,Cactus Restaurant & Bar,19127,312,3.0
903 N 2nd St,YaLKDgS_zIYIm6jkXWCxgA,"Restaurants, Italian, Sandwiches, Pizza",Philadelphia,39.9642199,-75.1404574,Rustica,19123,312,4.0
200 South St,K9cn-DrPEEXse1s1n-6mMw,"Breakfast & Brunch, Nightlife, Bars, American (Traditional), Restaurants",Philadelphia,39.9411136,-75.145825,Bridget Foy's,19147,312,3.5
630 South St,Jn4tRtjIuz6MBCykQySpeg,"Restaurants, Sandwiches, Event Planning & Services, Specialty Food, Food, Caterers, Cheesesteaks",Philadelphia,39.9419789,-75.1532317,Woodrow's Sandwich Shop,19147,312,4.5
1425 Walnut St,kj3Lyh9KooU8GcRBbMDQWQ,"Restaurants, Bakeries, Breakfast & Brunch, Coffee & Tea, Food, Belgian, French",Philadelphia,39.949621,-75.165252,Le Pain Quotidien,19102,312,3.5
212 S 12th St,eqNutOMnPqKa9QDAY6KfEw,"Food, Juice Bars & Smoothies, Coffee & Tea, Restaurants, Bakeries, Cafes",Philadelphia,39.948081,-75.1608093,J'aime French Bakery,19107,310,4.5
"1040 N American St, Ste 601",cbr2Db20L6P50CsxsX6c2A,"Food, Restaurants, Armenian, Middle Eastern, Mediterranean",Philadelphia,39.9673315908,-75.1404441921,Apricot Stone,19123,310,4.5
117 S St,HcddEbhaQ3wgyEFoEZSeGQ,"Thai, Restaurants",Philadelphia,39.9412384,-75.14467,Tamarind,19147,309,4.0
1336 Chestnut St,ci-kujWfHzsg5zCcqYZLKA,"Nightlife, Restaurants, Event Planning & Services, Cocktail Bars, Bowling, Active Life, Venues & Event Spaces, Bars, American (Traditional), American (New), Lounges",Philadelphia,39.950671,-75.1633942,Lucky Strike - Philadelphia,19107,309,3.0
402 Wood St,4qG7aFq9-45830OfYt7gCA,"Cafes, Restaurants, Italian",Philadelphia,39.956611,-75.1463377,Radicchio Cafe,19106,309,4.0
901 Christian St,i_sAh-ylmOwCQmqRmXox8g,"Italian, Restaurants, Gluten-Free",Philadelphia,39.9391381,-75.1579072,Monsú,19147,309,4.0
1301 N 5th St,1N7RWvz2c_e640PsvnSc0A,"Restaurants, Mexican",Philadelphia,39.9714977,-75.1444936,Taco Riendo,19122,309,4.0
1622 South St,-T_lkOvaK39R-Ufg6VUyxg,"Desserts, Food, Coffee & Tea, Restaurants",Philadelphia,39.9439921,-75.1695863,Magpie,19146,308,4.5
306 S 16th St,VJEzpfLs_Jnzgqh5A_FVTg,"Soup, Thai, Restaurants, Salad",Philadelphia,39.9470839462,-75.1682054067,Jasmine Rice - Rittenhouse,19102,307,3.5
229 S 45th St,ckbvLKwjEb836t-EDKsVVg,"Restaurants, Bars, Nightlife, Ethiopian",Philadelphia,39.9541658,-75.2116004,Abyssinia,19104,307,3.5
2234 W Passyunk Ave,3M69f6Cg2CAgpEcIgoKS5A,"Burgers, Sandwiches, Cheesesteaks, Food, Juice Bars & Smoothies, Restaurants",Philadelphia,39.9225830143,-75.1848140609,Philip's Steaks,19145,307,3.5
4365 Main St,rK4MQ-vybY5KXI73o-0mlw,"Restaurants, Cocktail Bars, Wine Bars, American (New), Pizza, Tapas Bars, Beer, Wine & Spirits, Nightlife, Food, Bars",Philadelphia,40.025925,-75.2241818,Jake's & Cooper's Wine Bar & Wine Shop,19127,306,3.5
637 N 3rd St,vpfy4_N1PozCkvk2WDE_RQ,"Restaurants, Bars, American (Traditional), Nightlife",Philadelphia,39.9622476511,-75.1430036973,The Abbaye,19123,306,4.0
4728 Baltimore Ave,14ZGwnDyydXdSBsLXpSUrA,"Vietnamese, Restaurants, Food, Thai, Coffee & Tea, Laotian",Philadelphia,39.9483087,-75.2178905,Vientiane Café,19143,304,4.0
308 E Girard Ave,LM4-MPJIIwQlpBVZuzbJxg,"Restaurants, Thai, Vietnamese, American (New)",Philadelphia,39.9696821256,-75.1314063513,Stock,19125,304,4.0
15 S 20th St,e4MoozYGqe_rb4_ZC1rYMQ,"Event Planning & Services, Venues & Event Spaces, Cupcakes, Coffee Roasteries, Italian, Food, Bakeries, Coffee & Tea, Restaurants",Philadelphia,39.952725,-75.1729016,Nook Bakery & Coffee Bar,19103,304,4.5
710 W Girard Ave,J36em-jyd2inHyXC20jtXA,"Pakistani, Indian, Restaurants, Food, Food Delivery Services, Vegetarian",Philadelphia,39.9701111,-75.1486779,Tiffin,19123,304,3.5
1549 S 13th St,1CCG0WYSoR8ejdgD5-Gaqg,"Italian, Restaurants, Pizza",Philadelphia,39.9302667,-75.1659499,Francoluigi's Pizzeria & Italian Restaurant,19147,303,4.0
105 S 22nd St,DAbpxhhHOxInDNLdvWrTTQ,"Noodles, Thai, Restaurants, Salad",Philadelphia,39.9521517,-75.1768973,Smile Cafe,19103,303,4.0
2004 Chestnut St,c3a5La0D2L51qXVE7DIJLg,"Fast Food, Halal, Ethnic Food, Indian, Restaurants, Specialty Food, Food",Philadelphia,39.9518768,-75.173802,Spice End,19103,302,3.5
1180 S 10th St,QKVX66UREuD6aQ0x_F17wA,"Restaurants, Food, Pizza, Italian",Philadelphia,39.934678,-75.160539,Slice,19147,302,3.5
1002 Arch St,kiA1mrC2ZVoRmpsWgAT7ow,"Asian Fusion, Chinese, Hot Pot, Restaurants",Philadelphia,39.953486,-75.156575,Hippot Shabu Shabu,19107,302,3.5
125 Walnut St,EhotxJEJxpMgCJ0F82Buvg,"Breakfast & Brunch, Restaurants, Bars, American (New), Lounges, Cocktail Bars, Nightlife, Seafood",Philadelphia,39.9469051201,-75.1440923726,The Olde Bar,19106,302,4.0
1701 Locust St,q9Pupuw6Z2b8WaYK-MGt4g,"Gluten-Free, Coffee & Tea, Breakfast & Brunch, Australian, Restaurants, Cafes, Food",Philadelphia,39.9489487,-75.1695317,Bluestone Lane,19103,302,4.0
1518 Chestnut St,waWvlZPOgPkfSTsnCju4aA,"Restaurants, Indian",Philadelphia,39.950914,-75.1664173,Amma's South Indian Cuisine,19102,301,4.0
4914 Baltimore Ave,JomDoQafikclSVVCPkWjnA,"Diners, Restaurants, Sandwiches, Breakfast & Brunch, Vegetarian",Philadelphia,39.94796,-75.22198,Cedar Park Cafe,19143,301,4.0
1700 Benjamin Franklin Pkwy,BiSdlIuOlf6MqyEZ6aWhfQ,"Restaurants, Sports Bars, Nightlife, Bars, Pubs, Irish",Philadelphia,39.95602,-75.167795,Con Murphy's,19103,301,3.5
1819 E Passyunk Ave,TUtOrI_GnVwSuHHTTEN8MA,"Coffee & Tea, Sandwiches, Food, Breakfast & Brunch, Restaurants",Philadelphia,39.9272228,-75.1663261,Chhaya Cafe,19148,301,4.0
2063 South St,Co3Ogqy6y2JgZdG0wBlrUQ,"Asian Fusion, Nightlife, Restaurants, American (New), Bars, Pubs",Philadelphia,39.9450458,-75.1769728,Ten Stone Bar & Restaurant,19146,300,3.0
695 N Broad St,3wg8xiywSGA96DWCF0WOLw,"Cheesesteaks, Food, Restaurants, Steakhouses, Sandwiches",Philadelphia,39.9662097908,-75.1603736876,Jimmy G's Steaks,19123,300,4.0
2501 Meredith St,4zQV6v8TwEYMwI9Ekdf19g,"Moroccan, Restaurants",Philadelphia,39.9685113,-75.1785123,Figs,19130,300,4.0
120 S 18th St,i89mbAOMy4HVJRllmIKyzQ,"Restaurants, Bars, Ethnic Food, American (Traditional), Sandwiches, Wraps, Food Delivery Services, Nightlife, American (New), Seafood, Sports Bars, Food, Specialty Food",Philadelphia,39.9511294,-75.1707078,Wrap Shack,19103,300,3.5
630 N 2nd St,MM_v-KIUJiXLCxnkIqPKWA,"Restaurants, Vegetarian, Vegan, Coffee & Tea, Food",Philadelphia,39.9616969288,-75.1412892166,Soy Cafe,19123,299,4.5
344 South St,4hQxm6xckt0EGqfAGzQDyg,"Pubs, Cocktail Bars, Lounges, Sandwiches, Restaurants, Burgers, American (Traditional), Bars, American (New), Nightlife",Philadelphia,39.9415037,-75.1489862,Copabanana,19147,299,2.5
51 N 12th St,QtST1igZAi0q9LxJr6srIQ,"Restaurants, Seafood, American (New), Live/Raw Food, Breakfast & Brunch",Philadelphia,39.953298,-75.159071,Pearl's Oyster Bar,19107,298,4.0
1903 Chestnut St,YO9Ycz_chfmoW4WI9Ou0ag,"Gastropubs, Restaurants, Nightlife, Bars, Pubs",Philadelphia,39.9521221,-75.1720791,Drinker's Pub,19103,297,3.5
914 N 2nd St,5AGVyIa1_XVUqXGbQXRmiQ,"Restaurants, American (New), Arts & Entertainment, Jazz & Blues, Nightlife, Bars",Philadelphia,39.9645949,-75.1408296,Heritage,19123,297,4.0
8126 Germantown Ave,nIlmZLuMs0JuBRvAHSIf8Q,"Food, Restaurants, Bakeries, Custom Cakes, Ice Cream & Frozen Yogurt, Desserts",Philadelphia,40.0724995,-75.202403,Bredenbeck's Bakery & Ice Cream Parlor,19118,296,4.0
114 S 12th St,0PDe8TxXHoROxpu-jH8e6A,"Restaurants, American (New), Live/Raw Food",Philadelphia,39.9497992,-75.1604137,Pennsylvania 6,19107,296,4.0
1345 Locust St,lFYqN66bnwx8MiaIAtesoA,"Bars, Pubs, Nightlife, Restaurants, Gastropubs, Breakfast & Brunch",Philadelphia,39.9482894,-75.1639634,Perch Pub,19107,295,3.5
1801 E Passyunk Ave,eLAd1Jw-g1NKymBx1XPDoA,"Burgers, Pasta Shops, Pizza, Pubs, Specialty Food, Restaurants, Food, Nightlife, American (New), Bars, Italian",Philadelphia,39.927559,-75.166057,Stogie Joe's Tavern,19148,295,3.5
